ident,latitude,longitude,name,city,state,num_runway_hard,num_runway_soft
UHMI,68.8685760498047,-179.375534057617,Mys Shmidta Airport,Egvekinot,,1,0
PALU,68.8751831054688,-166.111831665039,Cape Lisburne LRRS,Cape Lisburne,Alaska,1,0
PAPO,68.348747253418,-166.799285888672,Point Hope,Point Hope,Alaska,1,0
Z53,69.0239486694336,-163.858062744141,Cape Sabine,Cape Beaufort,Alaska,1,0
PPIZ,69.7328872680664,-163.005279541016,Point Lay LRRS,Point Lay,Alaska,1,0
2AK8,70.2942199707031,-161.904983520508,Icy Cape AFS,Icy Cape,Alaska,0,1
PAVL,67.7359085083008,-164.563034057617,Kivalina,Kivalina,Alaska,0,1
PAWN,67.5616149902344,-162.979904174805,Noatak,Noatak,Alaska,1,0
PAWT,70.6138000488281,-159.863845825195,Wainwright As,Wainwright,Alaska,0,1
PAWI,70.6379776000977,-159.994552612305,Wainwright,Wainwright,Alaska,1,0
PABR,71.2854843139648,-156.765396118164,Wiley Post-Will Rogers Memoria,Barrow,Alaska,1,0
PABO,71.3391571044922,-156.636215209961,Point Barrow LRRS Airstrip,Barrow,,1,0
PATQ,70.4671325683594,-157.435699462891,Atqasuk Edward Burnell Sr Memorial Airport,Atqasuk,Alaska,1,0
0AK2,71.0580673217774,-154.738006591797,Cape Simpson,Cape Simpson,Alaska,0,1
AK71,70.9110717773438,-153.23600769043,Lonely As,Lonely,Alaska,1,0
3AK9,70.5742568969727,-152.258804321289,Kogru River,Kogru River,Alaska,0,1
PALP,70.3441314697266,-150.945236206055,Alpine Airstrip,Deadhorse,Alaska,1,0
AK20,70.4199295043945,-150.889251708984,Cd-3 Airstrip,Nuiqsut,,1,0
4AK1,70.0038299560547,-153.077560424805,Inigok,Deadhorse,Alaska,1,0
PAUM,69.3711166381836,-152.135040283203,Umiat,Umiat,Alaska,1,0
PAQT,70.2097625732422,-151.007095336914,Nuiqsut,Nuiqsut,Alaska,1,0
PAKP,68.1336517333984,-151.743286132813,Anaktuvuk Pass,Anaktuvuk Pass,Alaska,1,0
PADK,51.8779487609863,-176.646224975586,Adak,Adak I,Alaska,2,0
UHMD,64.3782196044922,-173.243347167969,Provideniya Bay,Provideniya Bay,,1,0
PAAK,52.2205352783203,-174.206298828125,Atka,Atka,Alaska,1,0
PASN,57.1663551330566,-170.222564697266,St Paul Island,St Paul I,Alaska,1,0
PAPB,56.5773582458496,-169.663681030273,St George,St George,Alaska,1,0
PAKO,52.9415245056152,-168.849411010742,Nikolski As,Nikolski,Alaska,1,0
PASH,66.2495803833008,-166.089431762695,Shishmaref,Shishmaref,Alaska,1,0
PAIW,65.6225967407227,-168.094985961914,Wales,Wales,Alaska,0,1
3Z1,64.8326034545898,-166.133712768555,Feather River,Feather River,Alaska,1,0
PATE,65.2403793334961,-166.339324951172,Teller,Teller,Alaska,1,0
PAPC,65.2534866333008,-166.857711791992,Port Clarence Cgs,Port Clarence,Alaska,1,0
PFKT,65.331428527832,-166.466217041016,Brevig Mission,Brevig Mission,Alaska,2,0
Z81,64.9089813232422,-165.015045166016,Salmon Lake,Salmon Lake,Alaska,1,0
94Z,64.5114440917969,-165.390213012695,Nome City,Nome,Alaska,1,0
PAOM,64.5125198364258,-165.44450378418,Nome,Nome,Alaska,2,0
Z47,64.6790924072266,-165.299392700195,Basin Creek,Basin Creek,Alaska,1,0
PACZ,61.7810173034668,-166.039459228516,Cape Romanzof LRRS,Cape Romanzof,Alaska,1,0
PAHP,61.5238800048828,-166.146697998047,Hooper Bay,Hooper Bay,Alaska,1,0
PACM,61.8445625305176,-165.573715209961,Scammon Bay,Scammon Bay,Alaska,1,0
PAVA,61.5408210754395,-165.600936889648,Chevak,,,1,0
PAOO,60.5413246154785,-165.087219238281,Toksook Bay,Toksook Bay,Alaska,1,0
PAMY,60.372386932373,-166.270233154297,Mekoryuk,Mekoryuk,Alaska,1,0
PAUT,54.1445999145508,-165.604125976563,Akutan,,,1,0
PAAM,53.9720153808594,-166.857528686523,Driftwood Bay Air Force Station,Dutch Harbor,Alaska,1,0
PADU,53.8989410400391,-166.54508972168,Unalaska,Unalaska,Alaska,1,0
PAUA,53.3769798278809,-167.892349243164,Cape Field At Fort Glenn,Unalaska,,2,1
PAOT,66.8838958740234,-162.600997924805,Ralph Wien Memorial,Kotzebue,Alaska,2,0
5QC,65.4078750610352,-164.660049438477,Quartz Creek Kougarok,Quartz Creek,Alaska,0,1
K29,64.8968048095703,-163.703628540039,Council,Council,Alaska,0,1
PAWM,64.6891555786133,-163.412734985352,White Mountain,White Mountain,Alaska,1,0
2AK9,65.6734161376953,-162.459884643555,Independence Creek,Independence Creek,Alaska,0,1
PADE,66.0692138671875,-162.767044067383,Deering,Deering,Alaska,2,0
PAGZ,65.401969909668,-161.281433105469,Granite Mountain As,Granite Mountain,Alaska,1,0
AK26,64.5602340698242,-164.446166992188,Solomon State Field,Solomon,Alaska,0,1
PFEL,64.614875793457,-162.27067565918,Elim,Elim,Alaska,1,0
GLV,64.543815612793,-163.038726806641,Golovin,Golovin,Alaska,0,1
PAGL,64.5504531860352,-163.007171630859,Golovin,Golovin,Alaska,1,0
WBB,63.5160102844238,-162.277984619141,Stebbins,Stebbins,Alaska,0,1
PAMK,63.4900779724121,-162.1103515625,St. Michael,St. Michael,Alaska,1,0
AUK,62.6788368225098,-164.650527954102,Alakanuk,Alakanuk,Alaska,1,0
PAEM,62.7861289978027,-164.490783691406,Emmonak,Emmonak,Alaska,0,1
PAUK,62.6830291748047,-164.722244262695,Alakanuk,,,0,1
PFKO,63.0306053161621,-163.532638549805,Kotlik,Kotlik,Alaska,1,0
SXP,62.5203742980957,-164.847686767578,Sheldon Point,Sheldon Point,Alaska,0,1
PAMO,62.0948104858398,-163.682830810547,Mountain Village,Mountain Village,Alaska,1,0
PASM,62.0581893920898,-163.303894042969,St Mary's,St Mary's,Alaska,2,0
0AK,61.9345512390137,-162.899551391602,Pilot Station,Pilot Station,Alaska,1,0
IGT,60.4692153930664,-164.704025268555,Nightmute,Nightmute,Alaska,1,0
PAEW,60.9390907287598,-164.641220092773,Newtok,Newtok,Alaska,1,0
MLL,61.8674621582031,-162.067901611328,Marshall,Marshall,Alaska,1,0
PARS,61.7768898010254,-161.319610595703,Russian Mission,Russian Mission,Alaska,0,2
PPIT,60.9060287475586,-162.440643310547,Nunapitchuk,Nunapitchuk,Alaska,1,0
4A2,60.8678970336914,-162.274337768555,Atmautluak,Atmautluak,Alaska,1,0
PFKW,60.7902450561523,-161.443786621094,Kwethluk,Kwethluk,Alaska,1,0
PABE,60.7785224914551,-161.838562011719,Bethel,Bethel,Alaska,3,0
PAPK,60.7029037475586,-161.778305053711,Napaskiak,Napaskiak,Alaska,1,0
PANA,60.6903343200684,-161.978546142578,Napakiak,Napakiak,Alaska,1,0
Z13,60.9138221740723,-161.493377685547,Akiachak,Akiachak,Alaska,1,0
PACK,60.1368064880371,-164.279174804688,Chefornak,Chefornak,Alaska,1,0
PAGG,59.8755531311035,-163.168075561523,Kwigillingok,Kwigillingok,Alaska,1,0
PAKI,59.9316101074219,-164.028167724609,Kipnuk,Kipnuk,Alaska,1,0
A61,60.3512001037598,-162.654586791992,Tuntutuliak,Tuntutuliak,Alaska,1,0
PADY,59.9616088867188,-162.880645751953,Kongiganak,Kongiganak,Alaska,1,0
EEK,60.2137222290039,-162.043869018555,Eek,Eek,Alaska,1,0
PAEE,60.2137451171875,-162.043823242188,Eek,,,1,0
GNU,59.1178855895996,-161.573776245117,Goodnews,Goodnews,Alaska,1,0
PAQH,59.754940032959,-161.845062255859,Quinhagak,Quinhagak,Alaska,1,0
6AK1,58.9112319946289,-161.711486816406,Platinum Mine,Platinum,Alaska,1,0
PAEH,58.648136138916,-162.063873291016,Cape Newenham LRRS,Cape Newenham,Alaska,1,0
PAPM,59.0178451538086,-161.827255249023,Platinum,Platinum,Alaska,1,0
PAKF,54.8478012084961,-163.407119750977,False Pass,False Pass,Alaska,1,0
PAVC,55.1163635253906,-162.266464233398,King Cove,King Cove,Alaska,1,0
PACD,55.203929901123,-162.723190307617,Cold Bay,Cold Bay,Alaska,2,0
PACS,54.5841293334961,-164.905883789063,Cape Sarichef,Cape Sarichef,Alaska,1,0
PFNO,66.8175430297852,-161.02229309082,Curtis Meml,Noorvik,Alaska,1,0
PAIK,66.9759674072266,-160.436584472656,Bob Baker Memorial,Kiana,Alaska,1,0
8AK3,66.7601623535156,-160.14533996582,Roland Norton Memorial Airstrip,Selawik,Alaska,0,1
PASK,66.6001510620117,-159.985931396484,Selawik,Selawik,Alaska,2,0
PAFM,67.1055526733398,-157.859909057617,Ambler,Ambler,Alaska,2,0
PABL,65.9815902709961,-161.149108886719,Buckland,Buckland,Alaska,0,1
HAY,65.2021484375,-161.157211303711,Haycock,Haycock,Alaska,0,1
PFKU,64.8758392333984,-157.730422973633,Koyukuk,Koyukuk,Alaska,1,0
PANU,64.7293853759766,-158.073989868164,Nulato,Nulato,Alaska,0,1
PAKV,64.3181228637695,-158.743408203125,Kaltag,,,1,0
K40,62.6472702026367,-160.190063476563,Anvik,Anvik,Alaska,1,0
PAGX,62.8921318054199,-160.066284179688,Grayling,Grayling,Alaska,1,0
PAHX,62.6921653747559,-159.569244384766,Shageluk,Shageluk,Alaska,0,1
PAHC,62.1882438659668,-159.775085449219,Holy Cross,Holy Cross,Alaska,1,0
FLT,62.4527778625488,-157.986877441406,Flat,Flat,Alaska,0,1
PFCR,62.0323143005371,-158.235717773438,Donlin Creek,,,1,0
PALG,61.5359764099121,-160.345596313477,Kalskag,Kalskag,Alaska,1,0
PANI,61.5815963745117,-159.543075561523,Aniak,Aniak,Alaska,1,0
PFAK,60.9029083251953,-161.230651855469,Akiak,Akiak,Alaska,1,0
TLT,61.087718963623,-160.923446655273,Tuluksak,Tuluksak,Alaska,1,0
ZNC,60.9810256958008,-159.994094848633,Nyac,Nyac,Alaska,1,0
PACH,61.579044342041,-159.215621948242,Chuathbaluk,Chuathbaluk,Alaska,1,0
CJX,61.8677978515625,-158.135025024414,Crooked Creek,Crooked Creek,Alaska,0,1
A63,59.0744857788086,-160.275115966797,Twin Hills,Twin Hills,Alaska,1,0
4AK7,59.2804946899414,-158.596694946289,Aleknagik Mission School,Aleknagik,Alaska,0,2
5A8,59.2825508117676,-158.617904663086,New Aleknagik,Aleknagik,Alaska,1,0
PATG,59.0544624328613,-160.394821166992,Togiak,Togiak Village,Alaska,2,0
0Z3,59.0534477233887,-158.583755493164,Shannons Pond,Dillingham,Alaska,1,0
17Z,58.9902381896973,-159.049896240234,Manokotak,Manokotak,Alaska,1,0
93AK,58.8715476989746,-158.472244262695,The Queens,Queens,Alaska,0,1
PADL,59.0446891784668,-158.505523681641,Dillingham,Dillingham,Alaska,1,0
PAMB,58.9317970275879,-158.90234375,Manokotak,,,1,0
PFCL,58.8336715698242,-158.529388427734,Clarks Point,,,1,0
PAPH,56.9595489501953,-158.633346557617,Port Heiden,Port Heiden,Alaska,2,0
PAPN,57.5804252624512,-157.572036743164,Pilot Point,Pilot Point,Alaska,1,0
UGB,57.4245643615723,-157.745056152344,Ugashik Bay,Pilot Point,Alaska,1,0
A79,56.2554244995117,-158.777862548828,Chignik Lake,Chignik Lake,Alaska,0,1
KCG,56.3179206848145,-158.589508056641,Chignik Fisheries,Chignik,Alaska,1,0
KCL,56.3109588623047,-158.534484863281,Chignik Lagoon,Chignik Flats,Alaska,0,1
PAJC,56.3115425109863,-158.373123168945,Chignik,Chignik,Alaska,0,1
PAAL,56.0056838989258,-160.560928344727,Port Moller Air Force Station,Cold Bay,Alaska,1,0
PAOU,56.0075454711914,-161.160827636719,Nelson Lagoon,Nelson Lagoon,Alaska,1,0
Z52,56.0369491577148,-160.264923095703,Johnsons Landing,Bear Lake,Alaska,0,2
PASD,55.3137283325195,-160.521514892578,Sand Point,Sand Point,Alaska,1,0
PAPE,55.9067115783691,-159.160903930664,Perryville,,,1,0
DCK,66.9425582885742,-156.891540527344,Dahl Creek,Dahl Creek,Alaska,1,0
PAGH,66.8880767822266,-157.162567138672,Shungnak,Shungnak,Alaska,1,0
PAOB,66.9123611450195,-156.897247314453,Kobuk,,,1,0
PABW,67.0766983032227,-156.943817138672,Barrow Airport,Barrow,,1,0
2AK6,66.1809463500977,-155.695266723633,Hog River,Hogatza,Alaska,0,1
PAHL,65.697883605957,-156.351455688477,Huslia,Huslia,Alaska,1,0
PAHS,65.702766418457,-156.378646850586,Huslia,Huslia,Alaska,0,1
PAGA,64.7360229492188,-156.937026977539,Edward G Pitka Sr,Galena,Alaska,1,0
1KC,64.4164886474609,-156.819229125977,Kalakaket Creek As,Kalakaket Creek,Alaska,0,1
KCR,63.5732116699219,-156.007781982422,Colorado Creek,Colorado Creek,Alaska,0,1
99AK,62.5973663330078,-157.155654907227,Moore Creek,Moore Creek,Alaska,1,0
Z17,63.1471977233887,-156.532119750977,Ophir,Ophir,Alaska,1,0
PPCT,62.9929351806641,-156.029632568359,Takotna,,,0,1
AK40,63.2284736633301,-154.761978149414,Nixon Fork Mine,Mcgrath,Alaska,1,0
MDR,63.1056632995606,-154.719848632813,Medfra,Medfra,Alaska,1,0
0AA4,62.5064544677734,-153.893035888672,Farewell,Farewell,Alaska,0,2
PASL,61.7005195617676,-157.165802001953,Sleetmute,Sleetmute,Alaska,0,1
RDV,61.7879409790039,-157.349716186523,Red Devil,Red Devil,Alaska,1,0
SRV,61.7897834777832,-156.588516235352,Stoney River 2,Stoney River,Alaska,0,1
2AK,61.3589744567871,-155.440490722656,Lime Village,Lime Village,Alaska,1,0
PASV,61.0969543457031,-155.574722290039,Sparrevohn LRRS,Sparrevohn,Alaska,1,0
9Z8,59.1270713806152,-156.859893798828,Levelock,Levelock,Alaska,0,1
PAJZ,59.7266540527344,-157.259521484375,Koliganek,Koliganek,Alaska,1,0
KEK,59.3568725585938,-157.471160888672,Ekwok,Ekwok,Alaska,0,1
KLL,59.1177139282227,-156.865249633789,Levelock,Levelock,Alaska,0,2
KNW,59.4498634338379,-157.328338623047,New Stuyahok,New Stuyahok,Alaska,0,1
PANW,59.4515724182129,-157.373153686523,New Stuyahok,,,1,0
PAIG,59.324089050293,-155.901641845703,Igiugig,Igiugig,Alaska,1,0
PANO,59.9802207946777,-154.839172363281,Nondalton,Nondalton,Alaska,1,0
4K0,59.7969818115234,-154.129974365234,Pedro Bay,Pedro Bay,Alaska,1,0
TPO,60.2001571655273,-154.323989868164,Port Alsworth,Port Alsworth,Alaska,2,0
PABM,59.3622283935547,-155.259780883789,Big Mountain,Big Mountain,Alaska,0,1
PFKK,59.4332962036133,-154.802551269531,Kokhanok,Kokhanok,Alaska,1,0
PAIL,59.7538604736328,-154.911026000977,Iliamna,Iliamna,Alaska,2,0
4AK9,58.7344665527344,-157.024810791016,Tibbetts,Naknek,Alaska,2,0
5NK,58.7345085144043,-157.024475097656,Naknek,Naknek,Alaska,2,0
PAKN,58.6770744323731,-156.649505615234,King Salmon,King Salmon,Alaska,2,0
PFWS,58.7024269104004,-157.002807617188,South Naknek Nr2,South Naknek,Alaska,2,0
AK60,57.884693145752,-157.094665527344,Fort Jensen,Jensens,Alaska,1,0
PAII,58.1855125427246,-157.374252319336,Egegik,Egegik,Alaska,2,0
PAKL,58.9656066894531,-155.097869873047,Kulik Lake,Kulik Lake,Alaska,1,0
9A8,57.5234603881836,-157.395980834961,Ugashik,Ugashik,Alaska,1,0
AK96,57.5164642333984,-157.386459350586,Bartletts,Egegik,Alaska,1,0
PALB,57.535083770752,-153.976684570313,Larsen Bay,Larsen Bay,Alaska,1,0
PAKY,57.565975189209,-154.453979492188,Karluk,Karluk,Alaska,1,0
PAKH,56.9386405944824,-154.182708740234,Akhiok,Akhiok,Alaska,1,0
1AK1,67.369384765625,-152.01171875,Crevice Creek,Crevice Creek,Alaska,0,1
PABT,66.9139099121094,-151.529159545898,Bettles,Bettles,Alaska,1,0
PAPR,66.8139572143555,-150.643692016602,Prospect Creek,Prospect Creek,Alaska,1,0
PAIM,65.9927062988281,-153.703826904297,Indian Mountain LRRS,Utopia Creek,Alaska,1,0
PATA,65.1744003295898,-152.108047485352,Calhoun Meml,Tanana,Alaska,0,1
80A,65.1040344238281,-151.176910400391,American Creek,American Creek,Alaska,0,1
PAML,64.9924011230469,-150.645553588867,Manley Hot Springs,Manley Hot Springs,Alaska,2,0
PAHE,65.0890045166016,-150.871917724609,Healy Airport,Healy,,1,0
2K5,63.3799018859863,-153.281661987305,Telida,Telida,Alaska,0,1
5Z5,63.5409851074219,-150.995071411133,Kantishna,Kantishna,Alaska,1,0
Z90,63.7512130737305,-150.33024597168,Stampede,Kantishna,Alaska,0,1
8KA,62.2938690185547,-153.369995117188,Tatitna,Tatitna,Alaska,0,1
PAFL,62.5321884155273,-153.61296081543,Tin Creek,Farewell Lake,Alaska,0,1
6AK,62.0837478637695,-152.717483520508,Rainy Pass,Rainy Pass,Alaska,0,1
33AK,62.5159187316895,-150.94548034668,Nugget Bench,Nugget Bench,Alaska,0,1
02AK,61.8772087097168,-150.097549438477,Rustic Wilderness,Willow,Alaska,0,1
0AK3,62.0348930358887,-150.491180419922,Parker Lake,Montana Creek,Alaska,0,1
21AK,62.0829658508301,-150.067031860352,Montana Creek,Talkeetna,Alaska,0,1
3AK3,62.5635566711426,-150.220245361328,Songlo Vista,Talkeetna,Alaska,0,1
PATK,62.3214073181152,-150.092636108398,Talkeetna,Talkeetna,Alaska,1,0
0AA5,62.3104476928711,-150.334396362305,Rangeview Airstrip,Y,,1,0
45AA,62.1627464294434,-150.539657592773,Davidson Strip,Willow,,0,1
51AK,62.2387237548828,-150.063629150391,Birch Creek Landing,Y,,0,1
AK19,62.1728935241699,-150.063735961914,Carl's Landing,Y,,1,0
1AK6,61.8558540344238,-151.400390625,Talachulitna River,Sketna,Alaska,0,1
PABG,61.1730918884277,-151.046600341797,Beluga,Beluga,Alaska,0,2
0AK9,61.3335266113281,-150.058547973633,Falcon Lake Strip,Anchorage,Alaska,0,1
25AK,61.7123260498047,-150.063552856445,Honeybee Lake Aero Park,Willow,Alaska,0,2
36AK,61.3447074890137,-150.065780639648,Flyway Farm Airstrip,Wasilla,Alaska,0,2
44AK,61.533447265625,-150.103149414063,West Papoose Lake Airpark,Wasilla,Alaska,0,1
64AK,61.4387741088867,-150.02799987793,Carpentiers Strip,Anchorage,Alaska,0,1
8AK6,61.3702697753906,-150.263778686523,Little Susitna,Susitna Station,Alaska,0,1
AK36,61.4357147216797,-150.122283935547,Point Mac,Anchorage,Alaska,0,1
AK67,61.7387237548828,-150.072509765625,Skid Marks,Willow,Alaska,0,1
AK69,61.7284622192383,-150.097320556641,Long Lake,Willow,Alaska,1,0
AK72,61.7054252624512,-150.599380493164,Jewell,Willow,Alaska,0,1
AK90,61.7448081970215,-150.115234375,Shirley Lake,Willow,Alaska,0,1
PAUO,61.7541923522949,-150.051376342773,Willow,Willow,Alaska,0,1
30AK,60.5058174133301,-151.259979248047,Doyle Estates,Kenai,Alaska,0,1
3AK4,60.6326484680176,-151.33935546875,Johnson,Kenai,Alaska,0,1
52AK,60.5054969787598,-151.248352050781,Basquo,Kenai,Alaska,0,1
5AK0,60.8175506591797,-151.799865722656,Trading Bay Production,Trading Bay,Alaska,0,1
6AK3,60.7290344238281,-151.277984619141,Butler Aviation,Kenai,Alaska,0,1
6Z1,60.6457290649414,-151.303741455078,Arness Lake,Kenai,Alaska,1,0
7AK3,60.4764595031738,-151.168914794922,Gaede,Soldotna,Alaska,1,1
8AK2,60.7008781433106,-151.294006347656,Carty's Airstrip,Kenai,Alaska,0,1
AK73,60.7230911254883,-151.309326171875,Mcgahan Industrial Airpark,Nikishka,Alaska,1,0
PAEN,60.5747947692871,-151.241348266602,Kenai Muni,Kenai,Alaska,2,0
PASX,60.4749717712402,-151.038192749023,Soldotna,Soldotna,Alaska,1,0
1AK4,60.5240631103516,-150.752044677734,Rotor Air,Soldotna,Alaska,1,0
40AK,60.5571975708008,-150.835845947266,Sterling Air Park,Sterling,Alaska,1,0
6AK5,61.1700439453125,-150.160797119141,Fire Island,Anchorage,Alaska,0,2
7AK5,60.5037345886231,-150.936462402344,Dahler Homestead,Soldotna,Alaska,0,1
7AK6,60.475944519043,-150.928512573242,Dan France,Soldotna,Alaska,0,1
88AK,60.5399627685547,-150.870040893555,Dutch Landing Strip,Sterling,Alaska,1,0
AK39,60.7000007629395,-150.175201416016,South Gasline,Sterling,Alaska,1,0
AK55,60.4894218444824,-150.801223754883,Moose Run Airstrip,Soldotna,Alaska,0,1
AK01,60.5290870666504,-150.624801635742,Alaska Airpark,Sterling,,1,0
AK05,60.5420150756836,-150.598770141602,Breeden,Sterling,,1,0
AK18,59.8331451416016,-153.086608886719,Camp Point,Homer,Alaska,0,1
0AK7,59.775936126709,-150.963943481445,Bradley Lake Hydroelectri Project Airstrip,Homer,Alaska,0,1
41AK,60.3118438720703,-151.320175170898,Winter's Strip,Kasilof,Alaska,0,1
5KS,60.3507308959961,-151.2626953125,Kasilof,Kasilof,Alaska,1,0
AK17,59.7670364379883,-151.216537475586,Glacierview Strip,Homer,Alaska,0,1
NIN,60.0201225280762,-151.589630126953,Ninilchik,Ninilchik,Alaska,1,0
00AK,59.9477310180664,-151.692474365234,Lowell Field,Anchor Point,,1,0
2AK4,59.4696273803711,-151.511611938477,Oyster Cove,Homer,Alaska,1,0
46AK,59.7375373840332,-151.021148681641,Bear Cove Farm,Homer,Alaska,0,1
4Z9,59.4518661499023,-151.521362304688,Jakolof Bay,Jakolof Bay,Alaska,0,1
AK07,59.246166229248,-151.874984741211,Dog Fish Bay,Anchorage,Alaska,0,1
PAHO,59.6455802917481,-151.476715087891,Homer,Homer,Alaska,1,0
PASO,59.4435234069824,-151.705200195313,Seldovia,Seldovia,Alaska,1,0
PGM,59.3483924865723,-151.829986572266,Port Graham,Port Graham,Alaska,1,0
ORI,57.8849029541016,-152.847564697266,Port Lions,Port Lions,Alaska,1,0
PAKD,57.8061981201172,-152.373565673828,Kodiak Mun,Kodiak,Alaska,1,0
PADQ,57.7494163513184,-152.493179321289,Kodiak,Kodiak,Alaska,3,0
6R7,57.2180480957031,-153.270172119141,Old Harbor,Old Harbor,Alaska,1,0
HI99,28.3893795013428,-178.296966552734,Sand Island,Kure Atol,Hawaii,1,0
PMDY,28.2015323638916,-177.381423950195,Henderson Field,"Midway Atoll, Sand I",,1,0
PHFS,23.8695507049561,-166.28498840332,Tern I.,Tern I.,Hawaii,0,1
HI01,22.209400177002,-159.44499206543,Princeville,Hanalei,Hawaii,1,0
HI03,22.0368404388428,-159.399398803711,Hanamaulu Airstrip,Hanamaulu,Hawaii,0,1
HI46,21.9660301208496,-159.427093505859,Hi 23 Airstrip,Puhi,Hawaii,1,0
PHPA,21.8969211578369,-159.60319519043,Port Allen,Hanapepe,Hawaii,1,0
PHBK,22.0227584838867,-159.785049438477,Barking Sands PMRF,Kauai,Hawaii,1,0
PHKE,21.9767589569092,-159.744293212891,Kekaha Airport,Kekaha,,1,0
PHLI,21.9759769439697,-159.338958740234,Lihue,Lihue,Hawaii,2,0
NPS,21.3626766204834,-157.962127685547,Ford Island NALF,Honolulu,Hawaii,0,1
PHDH,21.5794658660889,-158.197280883789,Dillingham Airfield,Oahu,Hawaii,1,0
PHHI,21.4814491271973,-158.037841796875,Wheeler AAF,Wahiawa,Hawaii,1,0
PHNL,21.3193874359131,-157.921264648438,Honolulu Intl,Honolulu,Hawaii,4,0
PHJR,21.3065605163574,-158.071578979492,Kalaeloa (John Rodgers Field),Kapolei,Hawaii,3,0
PHNG,21.4504642486572,-157.76789855957,Kaneohe Bay MCAS (Marion E Carl Field),Mokapu,Hawaii,1,0
PLWN,4.69831848144531,-160.394729614258,Washington Island Airstrip,Napari Village,,1,0
PLFA,3.89961838722229,-159.389312744141,Tabuaeran Island Airport,Napari Village,,0,1
HI49,21.1490230560303,-157.258758544922,Panda,Kaunakakai,Hawaii,0,1
PHLU,21.2110042572021,-156.973617553711,Kalaupapa Apt.,Kalaupapa,Hawaii,1,0
PHMK,21.1529731750488,-157.096466064453,Molokai,Kaunakakai,Hawaii,2,0
18HI,21.1369342803955,-156.734390258789,Brandt Field,Waialua,,0,1
PHJH,20.9629802703857,-156.673110961914,Kapalua,Lahaina,Hawaii,1,0
PHNY,20.7855854034424,-156.951400756836,Lanai,Lanai,Hawaii,1,0
PHWA,20.8026866912842,-156.582550048828,Waikapu Airport,Waikapu,,1,0
PHHN,20.7956447601318,-156.014434814453,Hana,Hana,Hawaii,1,0
PHOG,20.8989849090576,-156.430435180664,Kahului,Kahului,Hawaii,2,0
HI13,19.7920627593994,-155.848022460938,Puu Waa Waa Ranch,Kailua/Kona,Hawaii,1,0
PHKO,19.7387714385986,-156.045669555664,Ellison Onizuka Kona Intl At K,Kailua-Kona,Hawaii,1,0
PHMU,20.0013561248779,-155.668151855469,Waimea-Kohala,Kamuela,Hawaii,1,0
PHUP,20.2652282714844,-155.859954833984,Upolu,Hawi,Hawaii,1,0
HI27,20.0281143188477,-155.388610839844,Upper Paauilo Airstrip,Paauilo,Hawaii,0,1
HI32,19.8440074920654,-155.111572265625,Pepeekeo Airstrip,Pepeekeo,Hawaii,0,1
PHSF,19.7600631713867,-155.553817749023,Bradshaw Army Airfield,Pohakuloa,Hawaii,1,0
PHTO,19.7198963165283,-155.050369262695,Hilo Intl,Hilo,Hawaii,2,0
HI23,19.5464096069336,-155.10807800293,Mountain View Airstrip,Mountain View,Hawaii,1,0
HI25,19.1226692199707,-155.578277587891,Kaalaiki Airstrip,Naalehu,Hawaii,1,0
HI28,19.2156372070313,-155.468551635742,Pahala Airstrip,Pahala,Hawaii,1,0
PHHA,19.5161571502686,-154.962677001953,Hawaiian Paradise Park Airport,Hawaiian Paradise Park,,0,1
PLCH,1.98628377914429,-157.349868774414,Cassidy Intl,Christmas I,,1,0
PLBA,1.76282525062561,-157.194213867188,Banana Village Airport,Banana Village,,1,0
NLWF,-14.311595916748,-178.066452026367,Point Vele,Futuna I,,1,0
NFKB,-17.2544364929199,-179.488647460938,Kaibu Island Airport,Sigave,,0,1
NLAL,-17.4385833740234,-179.16357421875,Alo Airport,Alo,,0,1
NLAO,-17.5258827209473,-178.71516418457,Alo Airport,Alo,,0,1
NFOL,-20.658878326416,-178.741088867188,Ono-I-Lau Airport,Haveluloto,,0,1
NLWW,-13.2383146286011,-176.199295043945,Hihifo,Uvea I,,1,0
NFTO,-15.5705976486206,-175.630432128906,Niuafo'Ou,,,0,1
NFTV,-18.5855522155762,-173.962829589844,Vava'u,Vava'u,,1,0
NFTL,-19.7769737243652,-174.341293334961,Ha'Apai-Lifuka,Ha'Apai-Lifuka Island,,1,0
NFTF,-21.2408580780029,-175.149993896484,Fua'Amotu Intl,Nuku'Alofa,,1,0
PCIS,-2.76864814758301,-171.707885742188,Canton AFLD,Canton I,,1,0
NSFA,-13.8299894332886,-172.008361816406,Faleolo Intl,Apia,,1,0
NSFI,-13.8492527008057,-171.739562988281,Fagali,Fagali,,1,0
NSMA,-13.7423229217529,-172.257919311523,Maota Airport,Vailoa,,1,0
NSTU,-14.3300342559814,-170.710250854492,Pago Pago Intl,Pago Pago,,2,0
NSFQ,-14.21608543396,-169.423568725586,Fitiuta,"Tau Island, American Sam",,1,0
NSAS,-14.1843414306641,-169.670043945313,Ofu Village Apt.,"Ofu, American Samoa",,1,0
NIUE,-19.0789566040039,-169.925750732422,Niue Intl,Niue Island,,1,0
NCPK,-10.91455078125,-165.839706420898,Pukapuka,,,1,0
NCMH,-10.3809537887573,-160.999282836914,Manihiki,,,1,0
NCAI,-18.8330383300781,-159.765853881836,Avarua,Aitutaki,,2,0
NCAT,-19.9677543640137,-158.120056152344,Enua,"Atiu, Cook Is",,1,0
NCMR,-19.8425579071045,-157.703399658203,Mitiaro,,,1,0
NCRG,-21.2025756835938,-159.805694580078,Rarotonga Intl,Rarotonga I,,1,0
NTTB,-16.444372177124,-151.751266479492,Motu Mute,Bora Bora I,,1,0
NTTH,-16.6870555877686,-151.021728515625,Fare,Huahine I,,1,0
NTTR,-16.7229290008545,-151.465835571289,Uturoa,Raiatea I,,1,0
NTTU,-16.2423839569092,-151.833694458008,Tupai Airport,Faanui,,1,0
NTAR,-22.4336452484131,-151.360610961914,Rurutu,Rurutu Austral Is,,1,0
NZCI,-43.8119277954102,-176.465408325195,Chatham Is/Tuuta,Chatham Is,,1,0
POLI,70.4960479736328,-149.883331298828,Oliktok LRRS,Oliktok Point,Alaska,1,0
PAKU,70.3306884765625,-149.598068237305,Ugnu-Kuparuk,Kuparuk,Alaska,1,0
AK11,70.4015655517578,-148.681701660156,Point Mcintyre,Point Mcintyre,Alaska,1,0
PASC,70.1955337524414,-148.465850830078,Deadhorse,Deadhorse,Alaska,2,0
PAPU,70.2515182495117,-148.346664428711,Prudhoe Bay Airport,Prudhoe Bay,,1,0
PABU,70.1710891723633,-146.844390869141,Bullen Point Air Force Station,Kaktovik,Alaska,1,0
PABP,70.1374816894531,-147.030487060547,Badami,Deadhorse,Alaska,1,0
PAAD,70.1358642578125,-146.290954589844,Point Thomson Airstrip,,,1,0
RK1,69.6767425537109,-146.899322509766,Kavik Strip,,,0,1
FXM,70.1894454956055,-146.020614624023,Flaxman Island Airstrip,Prudhoe Bay,,1,0
PABA,70.1339874267578,-143.579940795898,Barter Island,Barter I Lrrs,Alaska,1,0
AK99,61.447322845459,-149.76008605957,Brown Low Point,Camden Bay,Alaska,0,1
CYDY,69.5962905883789,-140.173751831055,Dawson City Airport,Dawson City,,1,0
CYOC,67.5701065063477,-139.839950561523,Old Crow,Old Crow,Yukon Territory,0,1
CYFP,69.3332061767578,-138.718505859375,Fort Mcpherson Airport,Fort Mcpherson,,0,1
CYFF,68.9294586181641,-137.233963012695,Fort Mcpherson Airport,Fort Mcpherson,,1,0
CYKD,68.2233352661133,-135.005508422852,Aklavik,Aklavik,Northwest Territories,0,1
CYUB,69.4333801269531,-133.027191162109,Tuktoyaktuk,Tuktoyaktuk,Northwest Territories,0,1
CYEV,68.3037490844727,-133.483261108398,Zubko,Inuvik,Northwest Territories,1,0
PAWB,66.3622055053711,-147.406463623047,Beaver,Beaver,Alaska,0,1
SVS,66.0173416137695,-149.053359985352,Stevens Village,Stevens Village,Alaska,0,1
31AK,64.8346099853516,-147.4345703125,Dalrymple's,Fairbanks,Alaska,0,1
32AK,64.9097061157227,-147.907653808594,Hardrock Field,Fairbanks,Alaska,0,2
5AK3,64.7732543945313,-147.334060668945,Wrights,North Pole,Alaska,0,1
95Z,64.7587509155273,-147.392120361328,Bradley Sky Ranch,North Pole,Alaska,1,0
AK22,64.8219833374023,-147.525146484375,Lakloey Air Park,Fairbanks,Alaska,0,1
AK28,64.8135604858399,-147.921615600586,Chena Marina,Fairbanks,Alaska,0,1
MTF,64.8076248168945,-147.759338378906,Metro Fld,Fairbanks,Alaska,0,1
PAFA,64.8139038085938,-147.855407714844,Fairbanks Intl,Fairbanks,Alaska,3,0
PAFB,64.8366317749023,-147.616226196289,Ladd AAF,Ft Wainwright,Alaska,2,0
PANN,64.547966003418,-149.076080322266,Nenana Muni,Nenana,Alaska,1,1
2Z3,64.0421752929688,-148.862915039063,Eva Creek,Eva Creek,Alaska,0,1
PAST,63.3312377929687,-149.128448486328,Summit,Summit,Alaska,1,0
11Z,63.9105758666992,-149.023895263672,Lignite,Lignite,Alaska,0,1
15AK,63.3725852966309,-148.847579956055,Golden North Airfield,Cantwell,Alaska,2,0
AK06,63.6395797729492,-148.790725708008,Denali,Mckinley Park,Alaska,1,0
PAHV,63.8676109313965,-148.968872070313,Healy River,Healy,Alaska,1,0
PAIN,63.7323951721191,-148.91130065918,Mckinley Natl Park,Mckinley Park,Alaska,1,0
PATW,63.3910331726074,-148.956420898438,Cantwell,Cantwell,Alaska,0,1
2AK1,64.3637542724609,-147.365112304688,Blair Lake,Fairbanks /Ft Wainwright/,Alaska,0,1
2AK2,64.4505920410156,-147.564483642578,Clear Creek,Fairbanks /Ft Wainwright/,Alaska,1,0
AK32,64.1983108520508,-147.929458618164,Gold King Creek Air Force Station,Fairbanks,Alaska,0,1
AK7,64.1982574462891,-147.929092407227,Gold King Creek,,,0,1
0AK0,64.39208984375,-146.861709594727,Scotts,North Pole,Alaska,0,1
AK41,64.544059753418,-146.845626831055,Greg'n Sage,North Pole,Alaska,0,1
0Z2,63.1070938110352,-147.542419433594,Road Commission Nr 1,Denali,Alaska,0,1
HNE,61.9009094238281,-147.308898925781,Tahneta Pass,Tahneta Pass Lodge,Alaska,0,1
Z14,62.0662307739258,-146.459518432617,Tazlina,Tazlina,Alaska,1,0
5AK4,62.0327987670899,-146.674758911133,Snowshoe Lake Airport And Seaplane Base,Valdez,,0,1
05AK,61.6686935424805,-149.187194824219,Wasilla Creek Airpark,Palmer,Alaska,0,1
0AK1,61.616943359375,-149.321029663086,Anderson Lake,Wasilla,Alaska,1,0
10AK,61.5917739868164,-149.677734375,Hunt Strip,Wasilla,Alaska,0,2
13AK,61.6548233032227,-149.899429321289,Satterbergs,Houston,Alaska,0,1
14AK,61.6015205383301,-149.248199462891,Four Corners,Palmer,Alaska,1,0
16AK,61.5980682373047,-149.349884033203,Gattis Strip,Wasilla,Alaska,0,1
1AK7,61.250789642334,-149.301422119141,Hardee Field,Eagle River,Alaska,0,1
23AK,61.5940361022949,-149.310562133789,Yuknis,Wasilla,Alaska,0,1
2D3,61.6311454772949,-149.232131958008,Gooding Lake,Palmer,Alaska,1,0
34AK,61.6250152587891,-149.288558959961,Cardwell Strip,Palmer,Alaska,0,1
38AK,61.5594520568848,-149.70524597168,Mels,Wasilla,Alaska,0,1
39AK,61.5860290527344,-149.235916137695,Gilmore Strip,Palmer,Alaska,0,1
3AK2,61.6272811889648,-149.285705566406,Niklason Lake Estates,Palmer,Alaska,0,1
3AK6,61.5930519104004,-149.268127441406,B & B Boys Ranch,Palmer,Alaska,0,1
3AK8,61.6634521484375,-149.391571044922,Boisselle's Strip,Wasilla,Alaska,0,1
42AK,61.5682678222656,-149.48503112793,Wicker,Wasilla,Alaska,1,0
43AK,61.6009292602539,-149.578704833984,Kalmbach,Wasilla,Alaska,0,1
47AK,61.2923851013184,-149.531967163086,Highland,Eagle River,Alaska,0,1
4AK2,61.5578117370606,-149.423843383789,St John Homestead,Wasilla,Alaska,0,1
4AK6,61.6393394470215,-149.29167175293,Wolf Lake,Palmer,Alaska,2,0
55AK,61.4958724975586,-149.699020385742,Lawrence Airstrip,Wasilla,Alaska,1,0
56AK,61.575267791748,-149.607086181641,Bechtol Field,Wasilla,Alaska,0,1
58AK,61.5526695251465,-149.340118408203,Fairview East,Wasilla,Alaska,0,1
59AK,61.6318626403809,-149.340103149414,Penderosa,Wasilla,Alaska,1,0
5AK5,61.6572303771973,-149.460952758789,Todds Strip,Wasilla,Alaska,0,1
5AK6,61.5573539733887,-149.268173217773,Colberg,Palmer,Alaska,1,0
5AK8,61.6314697265625,-149.431991577148,Memory Lake,Wasilla,Alaska,1,0
5AK9,61.5492858886719,-149.186462402344,Grandview Subdivision,Palmer,Alaska,0,2
65AK,61.560359954834,-149.367599487305,Fairview Landing,Wasilla,Alaska,0,1
67AK,61.5346908569336,-149.670608520508,South Hollywood,Wasilla,Alaska,0,1
6AK7,61.5738792419434,-149.638870239258,Rainbow Heights Estates Airstrip,Wasilla,Alaska,0,1
6AK8,61.617504119873,-149.669769287109,Tulakes,Wasilla,Alaska,0,1
71AK,61.5278854370117,-149.496017456055,Bluff Park Farm,Wasilla,Alaska,0,1
77AK,61.5023307800293,-149.59391784668,Tidewater Bluffs,Wasilla,Alaska,0,1
7AK4,61.5415878295898,-149.460144042969,Jack Fish Landing,Wasilla,Alaska,0,1
7AK8,61.6215896606445,-149.61799621582,Hess,Wasilla,Alaska,0,1
87AK,61.6516799926758,-149.288467407227,Soloy Strip,Wasilla,Alaska,0,1
89AK,61.5592422485352,-149.70524597168,Lincoln Village Airpark,Wasilla,Alaska,1,0
8AK8,61.6303024291992,-149.682144165039,North Cubs Strip Airport,Wasilla,Alaska,1,0
9AK6,61.6242065429688,-149.647842407227,Leisurewood Airstrip Owners Assoc,Wasilla,Alaska,0,1
9AK7,61.5900192260742,-149.816177368164,Cubdivision,Big Lake,Alaska,0,1
A89,61.5009918212891,-149.639434814453,Settlers Bay Airstrip,Wasilla,Alaska,1,0
AK24,61.4180335998535,-149.439544677734,Hilltop,Chugiak,Alaska,1,0
AK25,61.6177253723145,-149.614517211914,Piper Landing,Wasilla,Alaska,0,1
AK27,61.6427459716797,-149.623840332031,Valley Flying Crown,Wasilla,Alaska,1,0
AK29,61.6126670837402,-149.85075378418,Reids Landing,Houston,Alaska,0,1
AK47,61.5858345031738,-149.56315612793,Shawn Field,Wasilla,Alaska,1,0
AK50,61.5546226501465,-149.141464233398,Sky Ranch At Pioneer Peak,Palmer,Alaska,1,0
AK63,61.5884895324707,-149.142486572266,Pat-Mar Strip,Palmer,Alaska,0,1
AK65,61.5980682373047,-149.349502563477,Green's Strip,Wasilla,Alaska,0,1
AK79,61.6393928527832,-149.291687011719,Hart Lake,Wasilla,Alaska,2,0
AK83,61.6249542236328,-149.610809326172,Gannon's Landing,Wasilla,Alaska,0,1
AK89,61.6561660766602,-149.885543823242,Black Spruce,Houston,Alaska,0,1
AK93,61.6551666259766,-149.272857666016,Grouse Ridge,Palmer,Alaska,1,0
AK95,61.5699691772461,-149.778564453125,Twin Lake,Big Lake,Alaska,0,1
PAGQ,61.5346603393555,-149.81282043457,Big Lake,Big Lake,Alaska,1,0
PAAQ,61.5943641662598,-149.089263916016,Palmer Buddy Woods Muni,Palmer,Alaska,2,0
PABV,61.4154205322266,-149.509185791016,Birchwood,Birchwood,Alaska,2,0
PAED,61.2510223388672,-149.804901123047,Elmendorf AFB,Anchorage,Alaska,2,0
PAFR,61.2658882141113,-149.653335571289,Bryant AHP,Bryant Ahp,Alaska,1,0
PAMR,61.2129173278809,-149.844818115234,Merrill Field,Anchorage,Alaska,3,0
PANC,61.174201965332,-149.997497558594,Ted Stevens Anchorage Intl,Anchorage,Alaska,3,0
PAWS,61.5716171264648,-149.540252685547,Wasilla,Wasilla,Alaska,1,0
Z40,61.3946228027344,-149.842590332031,Goose Bay,Goose Bay,Alaska,0,1
20AK,61.5045280456543,-149.89501953125,Owen Field,Big Lake,,0,1
48AK,61.7955932617187,-148.496490478516,Graham,Sutton/Chickaloon,Alaska,0,1
7AK9,61.6469917297363,-149.048187255859,Vinduska,Palmer,Alaska,1,0
A13,61.3412322998047,-148.998382568359,Bold,Anchorage,Alaska,0,1
AK1,61.5303230285645,-149.01741027832,Butte Mun,Palmer,Alaska,0,1
AK46,61.6288528442383,-149.04296875,Abi,Palmer,Alaska,0,1
AK53,61.5824546813965,-148.9970703125,Downwind Landing,Palmer,Alaska,0,1
AK59,61.7907257080078,-148.353118896484,King Ranch,Sutton,Alaska,0,1
AK66,61.4583015441895,-148.798233032227,Hunter Creek,Palmer,Alaska,1,0
AK88,61.6045455932617,-149.040298461914,Eagle Nest,Palmer,Alaska,0,1
5HO,60.9072608947754,-149.622924804688,Hope,Hope,Alaska,1,0
9AK5,61.1163558959961,-149.818557739258,Sky Harbor,Anchorage,Alaska,1,0
AK12,61.1064071655273,-149.864059448242,Flying Crown,Anchorage,Alaska,0,1
AK92,61.0796775817871,-149.827407836914,Rabbit Creek,Anchorage,Alaska,0,1
AQY,60.9690628051758,-149.11930847168,Girdwood,Girdwood,Alaska,1,0
CSR,61.1586761474609,-149.781066894531,Campbell,Anchorage,Alaska,1,0
JLA,60.4842338562012,-149.723297119141,Quartz Creek,Cooper Landing,Alaska,1,0
PAWR,60.7772636413574,-148.719421386719,Whittier,Whittier,Alaska,1,0
PASP,61.8113441467285,-147.508865356445,Sheep Mountain,Sheep Mountain,Alaska,0,1
PFCB,60.0786018371582,-147.994735717773,Chenega Bay,Chenega,Alaska,1,0
Z91,66.2744522094727,-145.818481445313,Birch Creek,Birch Creek,Alaska,1,0
PFYU,66.5719680786133,-145.248001098633,Fort Yukon,Ft Yukon,Alaska,1,0
PACI,66.6449356079102,-143.740188598633,Chalkyitsik,Chalkyitsik,Alaska,0,1
PACE,65.5739517211914,-144.780883789063,Central,Central,Alaska,0,1
CHP,65.4857711791992,-144.61083984375,Circle Hot Springs,Circle Hot Springs,Alaska,0,1
AK13,65.0521774291992,-146.045852661133,Chena Hot Springs,Chena Hot Springs,Alaska,0,1
PACR,65.8279113769531,-144.076187133789,Circle City (New),Circle,Alaska,1,0
L20,65.3120651245117,-143.133255004883,Coal Creek,Yukon Charley Rivers,Alaska,0,1
4AK8,61.5363159179688,-158.737365722656,Tetlin,Tetlin,Alaska,1,0
11AK,64.0019912719727,-145.504745483398,Delta Airmotive,Delta Junction,Alaska,0,2
9AK4,64.1371917724609,-145.830780029297,Arctic Angel,Delta Junction,Alaska,0,1
D66,64.0509490966797,-145.71858215332,Delta Junction,Delta Junction,Alaska,1,1
PABI,63.9944381713867,-145.719619750977,Allen AAF,Delta Junction/Ft Greely,Alaska,3,0
HKB,63.9957656860352,-144.692916870117,Healy Lake Airport,Deltana,,0,1
45AK,63.9462280273438,-145.423217773438,Cherokee,Delta Junction,Alaska,2,0
5BK,63.5333061218262,-145.860870361328,Black Rapids,Black Rapids,Alaska,0,1
AK77,63.9437370300293,-145.415390014648,All West,Delta Junction,Alaska,0,1
PADA,63.8598670959473,-145.098968505859,Deltana Airport,Deltana,,0,1
PFTO,63.3295288085938,-142.95378112793,Tok Junction,Tok,Alaska,1,0
8AK9,63.3082313537598,-143.014907836914,Tok 2,Tok,Alaska,0,1
PATJ,63.3036193847656,-143.001205444336,Tok,Tok,Alaska,0,1
TSG,63.3724937438965,-143.326324462891,Tanacross,Tanacross,Alaska,0,2
4AK5,62.990348815918,-144.476745605469,Mankomen Lake,Mankomen Lake,Alaska,0,1
PADB,62.6096115112305,-144.623657226563,Deltana Airport,Deltana,,0,1
3Z5,62.0615158081055,-145.425521850586,Brenwicks,Glennallen,Alaska,0,1
8AK1,62.2792472839356,-145.357223510742,Jacobus,Gulkana,Alaska,0,2
PAGK,62.1549835205078,-145.454437255859,Gulkana,Gulkana,Alaska,1,0
CZO,62.5617980957031,-144.673477172852,Chistochina,Chistochina,Alaska,0,1
Z93,61.9443168640137,-145.299942016602,Copper Center Nr2,Copper Center,Alaska,1,0
DDT,62.7246894836426,-143.920059204102,Duffys Tavern,Slana,Alaska,0,1
3T4,63.1343688964844,-142.521789550781,Tetlin,,,0,1
IBN,62.398250579834,-142.994934082031,Devils Mountain Lodge,Nabesna,Alaska,0,1
K55,61.177303314209,-145.686096191406,Thompson Pass,Thompson Pass,Alaska,1,0
CXC,61.5832595825195,-144.429779052734,Chitina,Chitina,Alaska,1,0
PACO,61.6605224609375,-145.181274414063,Cordova Airport,Cordova,,0,1
CKU,60.5436477661133,-145.725433349609,Cordova Mun,Cordova,Alaska,0,1
PACV,60.4904975891113,-145.477203369141,Merle K (Mudhole) Smith,Cordova,Alaska,2,0
AK97,60.4224891662598,-146.146209716797,Boswell Bay,Boswell Bay,Alaska,0,1
CYDI,66.809440612793,-141.64387512207,Dawson City Airport,Dawson City,,1,0
PAEG,64.7780838012695,-141.149398803711,Eagle,Eagle,Alaska,1,0
CKX,64.0666885375977,-141.951370239258,Chicken,Chicken,Alaska,0,1
BYA,64.0774917602539,-141.124252319336,Boundary,Boundary,Alaska,1,0
CYDT,64.4760971069336,-140.742263793945,Dawson City Airport,Dawson City,,0,1
CYDA,64.0422973632812,-139.130218505859,Dawson,Dawson,Yukon Territory,1,0
4Z5,62.0072746276856,-141.18180847168,Horsfeld,Horsfeld,Alaska,0,1
CYXQ,62.4103202819824,-140.868988037109,Beaver Creek,Beaver Creek,Yukon Territory,1,0
CYDB,61.370662689209,-139.039932250977,Burwash,Burwash,Yukon Territory,1,0
19AK,59.9660873413086,-141.660568237305,Icy Bay,Icy Bay,Alaska,1,0
0AA1,60.080753326416,-142.495300292969,Yakataga,Yakataga,Alaska,0,1
A67,59.414363861084,-139.033721923828,Harlequin Lake,Yakutat,Alaska,0,1
A68,59.5528717041016,-139.510223388672,Situk,Yakutat,Alaska,0,1
A70,59.4047050476074,-139.233032226563,Dangerous River,Yakutat,Alaska,0,1
PAYA,59.5032005310059,-139.661514282227,Yakutat,Yakutat,Alaska,2,0
CFQ6,62.8375434875488,-136.527969360352,Pelly Crossing,Pelly Crossing,Yukon Territory,0,1
CEX4,62.1108703613281,-136.181716918945,Carmacks,Carmacks,Yukon Territory,1,0
CYHQ,62.1077423095703,-136.303955078125,Haines Junction Airport,Haines Junction,,1,0
CFQ5,61.0296249389648,-138.40608215332,Silver City,Silver City,Yukon Territory,0,1
CYHT,60.7895889282227,-137.545639038086,Haines Junction,Haines Junction,Yukon Territory,1,0
CEK2,61.4864807128906,-135.777984619141,Braeburn,Braeburn,Yukon Territory,0,1
CFP8,60.8116264343262,-135.182205200195,Cousins,Whitehorse,Yukon Territory,0,1
CYXY,60.7115325927734,-135.067291259766,Whitehorse Intl,Whitehorse,Yukon Territory,3,0
A57,59.1992149353027,-138.445465087891,Alsek River,Yakutat,Alaska,0,1
A69,59.2494087219238,-138.503875732422,Tanis Mesa,Yakutat,Alaska,0,1
AK76,59.1263885498047,-138.408843994141,East Alsek River,Yakutat,Alaska,0,1
PAGY,59.4602355957031,-135.316909790039,Skagway,Skagway,Alaska,1,0
PAHN,59.2437858581543,-135.523483276367,Haines,Haines,Alaska,1,0
PAGS,58.4248390197754,-135.708755493164,Gustavus,Gustavus,Alaska,2,0
PAOH,58.0961151123047,-135.409744262695,Hoonah,Hoonah,Alaska,1,0
PASI,57.0471115112305,-135.361602783203,Sitka Rocky Gutierrez,Sitka,Alaska,1,0
CZFA,62.2075004577637,-133.373092651367,Faro,Faro,Yukon Territory,1,0
CFA4,60.1738090515137,-134.697250366211,Carcross,Carcross,Yukon Territory,1,0
CYSQ,59.5755805969238,-133.672378540039,Atlin,Atlin,British Columbia,1,0
PAJN,58.3549537658691,-134.576293945313,Juneau Intl,Juneau,Alaska,1,0
7AK2,58.1349296569824,-133.729110717773,Snettisham,Snettisham,Alaska,0,1
BD7,58.1952934265137,-132.325332641602,Muddy Lake,Muddy Lake,British Columbia,1,0
PAFE,56.9613227844238,-133.910308837891,Kake,Kake,Alaska,1,0
PAPG,56.8014869689941,-132.9462890625,Petersburg James A Johnson,Petersburg,Alaska,1,0
PAWG,56.4843215942383,-132.369934082031,Wrangell,Wrangell,Alaska,1,0
PAKW,55.5792465209961,-133.075973510742,Klawock,Klawock,Alaska,1,0
PAKE,56.2187957763672,-131.485046386719,Ketchikan Airport,Ketchikan,,1,0
PAKT,55.3555183410645,-131.713760375977,Ketchikan Intl,Ketchikan,Alaska,1,0
PANT,55.0427055358887,-131.570404052734,Annette Island,Annette Island,Alaska,2,0
CZMT,54.0271148681641,-132.125106811523,Masset,Masset,British Columbia,1,0
CYZP,53.254280090332,-131.813903808594,Sandspit,Sandspit,British Columbia,1,0
CYGH,66.2405090332031,-128.647552490234,Ft Good Hope,Ft Good Hope,Northwest Territories,0,1
CFT3,61.6914825439453,-130.773498535156,Finlayson Lake Airport,Watson Lake,,0,1
CYQH,60.1164207458496,-128.822418212891,Watson Lake,Watson Lake,Yukon Territory,1,0
CYDL,58.4223022460938,-130.031616210938,Dease Lake,Dease Lake,British Columbia,1,0
CBM5,57.9133567810059,-131.12727355957,Telegraph Creek,Telegraph Creek,British Columbia,0,1
CBU2,57.8484649658203,-129.985641479492,Iskut Village,Eddontenajon,British Columbia,0,1
CBW4,56.9668197631836,-130.249237060547,Bob Quinn Lake,Bob Quinn Lake,British Columbia,1,0
CYTC,55.2914276123047,-128.995895385742,Nass Camp Airstrip,Terrace,,1,0
CYSI,55.4670486450195,-127.701164245605,Private Airstrip,Smithers,,0,1
CYSO,55.1931419372559,-127.712661743164,Seeley Lake Field,Smithers,,0,1
CYSS,55.5358619689941,-127.866134643555,Witwer Airfield,Smithers,,0,1
CYPR,54.2859039306641,-130.444732666016,Prince Rupert,Prince Rupert,British Columbia,1,0
CBW2,54.1695899963379,-128.577697753906,Kitimat,Kitimat,British Columbia,1,0
CYXT,54.4659576416016,-128.581878662109,Terrace,Terrace,British Columbia,2,0
CBBC,52.185115814209,-128.156784057617,Bella Bella (Campbell I),Bella Bella,British Columbia,1,0
CYJQ,52.1368217468262,-128.056869506836,Bella Bella (Denny I),Bella Bella,British Columbia,1,0
CYVQ,65.2812805175781,-126.798484802246,Norman Wells,Norman Wells,Northwest Territories,1,0
CZFN,64.9097137451172,-125.56925201416,Tulita,Tulita,Northwest Territories,1,0
CBH4,61.5652465820313,-124.818534851074,Prairie Creek,Prairie Creek,Northwest Territories,0,1
CFP6,60.1247100830078,-124.050758361816,La Biche River,La Biche River,Yukon Territory,1,0
CBK7,58.8486213684082,-125.23804473877,Mile 422 (Alaska Highway),Toad River,British Columbia,0,1
CAJ9,57.4272575378418,-125.646614074707,Ft Ware,Ft Ware,British Columbia,0,1
CBF2,57.2716674804687,-125.451019287109,Finbow,Finbow,British Columbia,0,1
CAP6,56.791316986084,-124.898147583008,Ingenika,Ingenika,British Columbia,0,1
CBN9,56.9068412780762,-124.9658203125,Tsay Keh,Tsay Keh,British Columbia,0,1
CBT8,56.7242088317871,-125.116348266602,Swannell,Swannell,British Columbia,0,1
CBA9,56.2708587646484,-124.06371307373,Ospika,Ospika,British Columbia,0,1
CBW3,56.5221405029297,-124.470481872559,Fort Graham,Fort Graham,British Columbia,0,1
CBD5,55.1633033752441,-125.705772399902,Takla Narrows,Takla Narrows,British Columbia,0,1
CYGS,55.7675437927246,-124.692604064941,Burns Lake Airport,Burns Lake,,0,1
CAH5,55.1202774047852,-125.614700317383,Leo Creek,Leo Creek,British Columbia,1,0
CAM5,54.4405174255371,-126.78018951416,Houston,Houston,British Columbia,1,0
CYYD,54.8254661560059,-127.182899475098,Smithers,Smithers,British Columbia,1,0
CYPZ,54.3764381408691,-125.951370239258,Burns Lake,Burns Lake,British Columbia,1,0
CYJM,54.3975448608398,-124.263809204102,Perison,Ft St James,British Columbia,1,0
CBZ9,54.0144805908203,-124.771339416504,Fraser Lake,Fraser Lake,British Columbia,1,0
CAU4,54.048397064209,-124.013572692871,Vanderhoof,Vanderhoof,British Columbia,1,2
YRD,52.8242378234863,-126.964935302734,Dean River Airport,Houston,,0,1
CYBD,52.3875846862793,-126.595809936523,Bella Coola,Bella Coola,British Columbia,1,0
CAE4,53.0193061828613,-124.844314575195,Tsacha Lake,Tsacha Lake,British Columbia,0,1
CBT3,52.9708480834961,-125.02791595459,Pan Phillips,Tsetzi Lake,British Columbia,1,0
CAS2,53.0736618041992,-125.408828735352,Moose Lake (Lodge) Airport,Burns Lake,,0,1
CAJ4,52.4520835876465,-125.304420471191,Anahim Lake,Anahim Lake,British Columbia,1,0
CYPU,52.1129035949707,-124.144714355469,Puntzi Mountain,Puntzi Mountain,British Columbia,1,0
CYZT,50.6806755065918,-127.368217468262,Port Hardy,Port Hardy,British Columbia,3,0
CBX3,51.9572639465332,-124.885711669922,Chilanko Lodge,Kleena Kleene,British Columbia,0,1
CAF4,51.5264701843262,-124.163497924805,Tsuniah Lake Lodge,Tsuniah Lake,British Columbia,0,1
CAG3,51.6259803771973,-124.144302368164,Chilko Lake (Tsylos Park Lodge) Airport,Chilko Lake,British Columbia,1,0
CAG4,51.5652885437012,-123.824890136719,Twin Lakes,Twin Lakes,British Columbia,0,1
CBL9,51.5106430053711,-123.806076049805,Elkin Creek Guest Ranch Airport,Hanceville,,0,1
CBA7,51.1794586181641,-125.039031982422,Scar Creek,Scar Creek,British Columbia,0,1
CAK4,50.2158584594727,-126.620620727539,Woss,Woss,British Columbia,1,0
CAT5,50.5741195678711,-127.028495788574,Port Mcneill,Port Mcneill,British Columbia,2,0
CYAL,50.582332611084,-126.915794372559,Alert Bay,Alert Bay,British Columbia,1,0
CCI9,50.0236701965332,-124.984298706055,Hansen Airfield,Cortes Island,British Columbia,0,1
CYBL,49.9520263671875,-125.273071289063,Campbell River,Campbell River,British Columbia,1,0
CYCM,50.4093475341797,-125.131401062012,Stuart Island Airstrip,Campbell River,,1,0
CAH3,49.6795616149902,-124.980827331543,Courtenay,Courtenay,British Columbia,1,0
CBS8,49.3210411071777,-124.929565429688,Alberni Valley Regional,Port Alberni,British Columbia,1,0
CCS6,49.6667060852051,-125.098114013672,Courtenay (Smit Field),Courtenay,British Columbia,0,1
CYQQ,49.712574005127,-124.891693115234,Comox,Comox,British Columbia,2,0
CAT4,49.337272644043,-124.39387512207,Qualicum Beach,Qualicum Beach,British Columbia,1,0
CYGB,49.6940269470215,-124.51781463623,Gillies Bay,Texada,British Columbia,1,0
CYPW,49.8340797424316,-124.500389099121,Powell River,Powell River,British Columbia,1,0
CYAZ,49.0792350769043,-125.775688171387,Tofino,Tofino,British Columbia,3,0
CYUC,48.8205986022949,-125.119255065918,Bamfield Airstrip,Ucluelet,,1,0
CYCD,49.0545387268066,-123.870155334473,Nanaimo,Nanaimo,British Columbia,1,0
11S,48.2660942077637,-124.314056396484,Sekiu,Sekiu,Washington,1,0
KUIL,47.9391593933106,-124.561187744141,Quillayute,Quillayute,Washington,2,0
S18,47.9377021789551,-124.395935058594,Forks,Forks,Washington,1,0
14S,46.8969383239746,-124.10082244873,Westport,Westport,Washington,1,0
2S9,46.6976318359375,-123.823448181152,Willapa Harbor,South Bend-Raymond,Washington,1,0
5WA8,47.0416717529297,-124.145767211914,Hogan's Corner,Ocean Shores,Washington,1,0
94WA,47.085018157959,-123.773132324219,Wishkah River Ranch,Aberdeen,Washington,0,1
KHQM,46.9712028503418,-123.936599731445,Bowerman,Hoquiam,Washington,1,0
W04,46.9992561340332,-124.142364501953,Ocean Shores Mun,Ocean Shores,Washington,1,0
43IG,46.8014907836914,-124.073135375977,Grayland Intergalactic,Westport,,0,1
56S,46.014778137207,-123.907722473145,Seaside Mun,Seaside,Oregon,1,0
7W1,46.3149337768555,-124.003952026367,Port Of Ilwaco,Ilwaco,Washington,1,0
KAST,46.1581878662109,-123.879684448242,Astoria Rgnl,Astoria,Oregon,3,0
WA01,46.3574256896973,-123.814338684082,Wirkkala,Naselle,Washington,0,1
3S7,45.698112487793,-123.929634094238,Nehalem Bay State,Manzanita,Oregon,1,0
KPFC,45.1993446350098,-123.961898803711,Pacific City State,Pacific City,Oregon,1,0
KTMK,45.418342590332,-123.814170837402,Tillamook,Tillamook,Oregon,2,0
CYWJ,65.2111511230469,-123.43643951416,Deline,Deline,Northwest Territories,1,0
CYWY,63.2094650268555,-123.437477111816,Wrigley,Wrigley,Northwest Territories,1,0
CBN6,60.6600456237793,-123.583984375,Mount Flett,Mount Flett,Northwest Territories,0,1
CET4,61.867115020752,-121.368293762207,Fort Simpson Island,Ft Simpson Island,Northwest Territories,1,0
CYFS,61.7601776123047,-121.236572265625,Ft Simpson,Ft Simpson,Northwest Territories,1,0
CYFG,61.3480567932129,-121.799842834473,Fort Nelson Airport,Fort Nelson,,0,1
CYFL,61.4497604370117,-121.246627807617,Fort Nelson Airport,Fort Nelson,,0,1
CET9,61.5224456787109,-120.62483215332,Jean Marie River,Jean Marie River,Northwest Territories,1,0
CYJF,60.235481262207,-123.469932556152,Ft Liard,Ft Liard,Northwest Territories,0,1
CEU9,60.440299987793,-121.236267089844,Trout Lake,Trout Lake,Northwest Territories,1,0
CBV6,59.7394599914551,-121.866302490234,Petitot,Petitot,British Columbia,0,1
CBH2,59.425666809082,-120.797294616699,Helmet,Helmet Gas Plant,British Columbia,0,1
CBL3,58.8227043151855,-122.78971862793,Gordon Field,Fort Nelson,British Columbia,0,1
CYYE,58.8367691040039,-122.595245361328,Ft Nelson,Ft Nelson,British Columbia,2,0
BL8,58.9247627258301,-121.47191619873,Yoyo,Yoyo,British Columbia,0,1
CBX2,58.8342018127441,-121.393188476563,Mobil Sierra,Fort Nelson,British Columbia,0,1
CYFK,58.0412101745606,-120.908821105957,Fort St. John Airport,Fort St. John,,0,1
CBZ3,56.3005523681641,-121.008865356445,Charlie Lake,Fort St. John,British Columbia,0,1
CYNH,56.0351600646973,-121.978355407715,Hudson's Hope,Hudson's Hope,British Columbia,1,0
CYZY,55.2994384765625,-123.133453369141,Mackenzie,Mackenzie,British Columbia,1,0
CYCQ,55.6872253417969,-121.626708984375,Chetwynd,Chetwynd,British Columbia,1,0
CYDQ,55.742244720459,-120.183044433594,Dawson Creek,Dawson Creek,British Columbia,1,0
CYXJ,56.2385215759277,-120.740058898926,Ft St John,Ft St John,British Columbia,2,0
CDC3,55.8195838928223,-120.460319519043,Dawson Creek (Flying L Ranch) Airport,Dawson Creek,,0,1
CBX7,55.0273551940918,-120.931045532227,Tumbler Ridge,Tumbler Ridge,British Columbia,1,0
CBA8,53.8553276062012,-122.907028198242,Beaverley,Beaverley,British Columbia,0,1
CBW8,54.007869720459,-123.022857666016,North Cariboo Air Park,Prince George,British Columbia,0,1
CYXS,53.8873023986816,-122.673278808594,Prince George,Prince George,British Columbia,3,0
CYQZ,53.0260238647461,-122.510360717773,Quesnel,Quesnel,British Columbia,1,0
CYWL,52.183406829834,-122.054374694824,Williams Lake,Williams Lake,British Columbia,1,0
CYWI,52.197696685791,-121.956977844238,Dugan Lake Air Strip,Williams Lake,,0,1
CAS3,53.0874824523926,-121.514373779297,Barkerville,Barkerville,British Columbia,1,0
CAV4,53.3148384094238,-120.169769287109,Mcbride,Mcbride,British Columbia,1,0
CYWB,52.767692565918,-120.749168395996,Williams Lake Airport,Williams Lake,,1,0
CAX5,52.6128959655762,-121.507080078125,Likely,Likely,British Columbia,0,1
CBK6,52.5138549804688,-121.045860290527,Quesnel Lake,Quesnel Lake,British Columbia,0,1
CAW3,51.7955513000488,-123.581123352051,Scum Lake,Scum Lake,British Columbia,0,1
BF3,51.958667755127,-122.508880615234,Riske Creek,Riske Creek,British Columbia,0,1
CAQ4,51.9550552368164,-122.139976501465,Springhouse Airpark,Springhouse,British Columbia,0,1
CAY2,51.5518798828125,-122.327812194824,Gang Ranch,Gang Ranch,British Columbia,0,1
CYLI,50.6740837097168,-121.892417907715,Lillooet,Lillooet,British Columbia,1,0
CBJ4,51.2417488098145,-121.989479064941,Echo Valley,Echo Valley,British Columbia,1,0
CAV3,51.642936706543,-121.306655883789,One Hundred Mile House,One Hundred Mile House,British Columbia,1,0
CBG2,51.4296607971191,-121.209487915039,Green Lake,Green Lake,British Columbia,0,1
CZML,51.7364921569824,-121.332870483398,108 Mile,108 Mile Ranch,British Columbia,1,0
CDC5,52.010856628418,-121.211013793945,Dougall Campbell Field,Williams Lake,,1,0
CAZ5,50.7750473022461,-121.321212768555,Cache Creek,Cache Creek,British Columbia,1,0
CYIN,51.2663459777832,-121.684638977051,Bleibler Ranch,,,1,0
CYKA,50.7023963928223,-120.444160461426,Kamloops,Kamloops,British Columbia,2,0
CYPS,50.3022346496582,-122.737785339355,Pemberton,Pemberton,British Columbia,1,0
CAP3,49.4610862731934,-123.717926025391,Sechelt-Gibsons,Sechelt-Gibsons,British Columbia,1,0
CYSE,49.7821273803711,-123.161933898926,Squamish,Squamish,British Columbia,1,0
CYCV,49.2524185180664,-121.946029663086,Pretty Estates Resort Airport,Chilliwack,,1,0
CYLY,50.243896484375,-121.56941986084,Lytton,Lytton,British Columbia,1,0
CAD5,50.1228675842285,-120.745018005371,Merritt,Merritt,British Columbia,1,0
CAL3,50.1654586791992,-120.171264648438,Douglas Lake,Douglas Lake,British Columbia,1,0
CBT6,50.162166595459,-120.506912231445,Quilchena,Quilchena,British Columbia,1,0
CYKS,50.5984535217285,-120.309188842773,Knustford Airstrip,Kamloops,,0,1
CYHE,49.3687019348145,-121.496719360352,Hope,Hope,British Columbia,0,1
CYDC,49.4679069519043,-120.512496948242,Princeton,Princeton,British Columbia,1,0
1RL,48.9773902893066,-123.07926940918,Point Roberts Airpark,Point Roberts,Washington,0,1
1WA9,48.5300750732422,-123.047424316406,Friday West,Friday Harbor,Washington,0,1
2WA3,48.6845932006836,-123.214729309082,Stuart Island West,Friday Harbor,Washington,0,1
38WA,48.5792694091797,-122.823829650879,Blakely Island,Blakely Island,Washington,1,0
4WA4,48.5509643554687,-122.886207580566,Windsock,Lopez,Washington,0,1
6WA5,48.5755805969238,-122.943641662598,Wilding Farm,Shaw Island,Washington,0,1
7WA5,48.6734046936035,-123.175498962402,Stuart Island Airpark,Stuart Island,Washington,0,1
90WA,48.7109794616699,-123.017654418945,Waldronaire,East Sound,Washington,0,1
CAK3,49.0787734985352,-122.940330505371,Delta Heritage Air Park,Delta Air Park,British Columbia,0,1
CAM3,48.754753112793,-123.709861755371,Duncan,Duncan,British Columbia,1,0
CML2,48.8118743896484,-123.650581359863,Raven Field,Duncan,British Columbia,0,1
CSK8,49.0931396484375,-122.822891235352,Surrey - King George Airpark,Surrey,British Columbia,0,1
CYVR,49.1940612792969,-123.184936523438,Vancouver Intl,Vancouver,British Columbia,3,0
CYYJ,48.6478996276856,-123.427688598633,Victoria Intl,Victoria,British Columbia,3,0
CZBB,49.0757026672363,-123.010749816895,Vancouver/Boundary Bay,Boundary Bay,British Columbia,2,0
KORS,48.7083358764648,-122.910575866699,Orcas I,Eastsound,Washington,1,0
WA09,48.611400604248,-123.13631439209,Roche Harbor,Roche Harbor,Washington,1,0
WA35,48.6223373413086,-122.947128295898,Clam Harbor,Eastsound,Washington,0,1
CLH3,48.8584632873535,-123.474937438965,Long Harbour,,,0,1
38W,48.9558906555176,-122.457855224609,Lynden,Lynden,Washington,1,0
4WA5,48.7233695983887,-122.697692871094,Millers Field,Lummi Island,Washington,0,1
4WA8,48.834903717041,-122.26432800293,Riverside,Deming,Washington,0,1
7WA3,48.8867530822754,-122.328704833984,West Wind,Everson,Washington,0,1
CBQ2,49.1677131652832,-122.557037353516,Fort Langley,Fort Langley,British Columbia,1,0
CYCW,49.1532287597656,-121.939025878906,Chilliwack,Chilliwack,British Columbia,1,0
CYNJ,49.1019668579102,-122.629356384277,Langley,Langley,British Columbia,2,0
CYPK,49.2163047790527,-122.71102142334,Pitt Meadows,Pitt Meadows,British Columbia,3,0
CYXX,49.0227165222168,-122.366958618164,Abbotsford,Abbotsford,British Columbia,2,0
KBLI,48.7926940917969,-122.537551879883,Bellingham Intl,Bellingham,Washington,1,0
WA88,48.8924407958984,-122.561141967773,Horse Fly,Ferndale,Washington,0,1
WA93,48.6525077819824,-122.585914611816,Eliza Island,Bellingham,Washington,0,1
WN08,48.9156227111816,-122.113464355469,Kendall Airstrip,Kendall,Washington,0,1
WN35,48.9086837768555,-122.564483642578,Meadow Mist,Ferndale,Washington,0,1
WN51,48.5209541320801,-122.466049194336,Bayview Farms,Burlington,Washington,0,1
2WA1,48.0922393798828,-122.928039550781,Diamond Point Airstrip,Sequim,Washington,1,0
61WA,48.4728393554687,-123.014389038086,Burden Field-(Rabbit Run),Friday Harbor,Washington,0,1
78WA,48.4898300170898,-122.831741333008,Center Island,Center Island,Washington,0,1
7WA0,48.0973777770996,-123.641799926758,Big Andy,Port Angeles,Washington,0,1
KCLM,48.1208229064941,-123.500099182129,William R Fairchild Intl,Port Angeles,Washington,2,0
KNOW,48.1412963867188,-123.413963317871,Port Angeles Cgas,Port Angeles,Washington,1,0
S31,48.4839477539063,-122.937660217285,Lopez Island,Lopez,Washington,1,0
W28,48.0979118347168,-123.187934875488,Sequim Valley,Sequim,Washington,1,0
WA45,47.9966354370117,-122.898551940918,Olympic Field,Discovery Bay/Maynard,Washington,0,1
WA59,48.1255798339844,-123.151092529297,Rake's Glen,Sequim,Washington,1,0
WN00,47.8380699157715,-122.858955383301,Kimshan Ranch,Quilcene,Washington,0,1
WN07,48.4998168945313,-122.813751220703,Decatur Shores,Decatur,Washington,0,1
WN21,48.0794944763184,-123.398666381836,Lawson Airpark,Port Angeles,Washington,0,1
WN23,48.1017150878906,-123.1796875,Grand View Intl,Sequim,Washington,0,1
WN29,48.1302528381348,-123.205863952637,Blue Ribbon,Sequim,Washington,0,1
WN49,48.1220932006836,-123.087539672852,Harbord Field,Sequim,Washington,0,1
0S9,48.0538063049316,-122.81063079834,Jefferson Co Intl,Port Townsend,Washington,1,0
13W,48.2569427490234,-122.436225891113,Camano I,Stanwood,Washington,1,0
14WA,48.2392997741699,-122.447784423828,Livingston Bay,Stanwood,Washington,0,1
15WA,48.2726173400879,-122.356971740723,Sunset,Stanwood,Washington,0,1
27WA,48.3246688842773,-122.316223144531,J C's,Conway,Washington,0,1
74S,48.4985313415527,-122.662521362305,Anacortes,Anacortes,Washington,1,0
KOKH,48.2515296936035,-122.672782897949,Lupien,Oak Harbor,Washington,1,0
76WA,48.0052299499512,-122.133811950684,Heineck Farm,Everett,Washington,0,1
80WA,48.0346145629883,-122.775001525879,Sfs Airpark,Hadlock,Washington,0,1
96WA,47.8982276916504,-122.155662536621,Jim & Julie's,Everett,Washington,0,1
KAWO,48.1604194641113,-122.159744262695,Arlington Mun,Arlington,Washington,2,0
KBVS,48.4681129455566,-122.421424865723,Skagit Regl,Burlington/Mt Vernon,Washington,2,1
KNRA,48.1884269714355,-122.632118225098,Coupeville NOLF,Coupeville,Washington,1,0
KNUW,48.3518486022949,-122.655990600586,Whidbey Island NAS /Ault Field,Oak Harbor,Washington,2,0
KPAE,47.9059257507324,-122.278633117676,Snohomish County (Paine Fld),Everett,Washington,2,0
S43,47.9045753479004,-122.102401733398,Harvey,Snohomish,Washington,1,1
WA04,47.8148307800293,-122.043823242188,Kyle's Airfield At Lost Lake,Snohomish,Washington,0,1
W10,48.017578125,-122.437767028809,Whidbey,Langley,Washington,1,0
W16,47.8713722229004,-121.995582580566,First Air,Monroe,Washington,1,0
WA07,48.3768692016602,-122.338661193848,Barker,Mount Vernon,Washington,0,1
WA18,48.5103263854981,-122.802742004395,Decatur /Jones/,Decatur Island,Washington,0,1
WA25,48.0959243774414,-122.015098571777,Green Valley Airfield,Granite Falls,Washington,0,1
WA42,47.9756927490234,-122.772834777832,Stacey's,Port Townsend,Washington,0,1
WA56,48.5078849792481,-122.091514587402,Israel's Farm,Sedro Woolley,Washington,0,1
WN18,48.4556579589844,-122.539756774902,Becker's Landing,Anacortes,Washington,0,1
WN40,48.1906356811524,-122.642883300781,Coupeville Airpark,Coupeville,Washington,0,1
WN53,48.110164642334,-122.06282043457,Frontier Airpark,Lake Stevens,Washington,1,0
3W5,48.5298614501953,-121.75862121582,Concrete Mun,Concrete,Washington,1,0
W12,48.649658203125,-120.501907348633,Lost River Resort,Mazama,Washington,0,1
1S2,48.258617401123,-121.610237121582,Darrington Muni,Darrington,Washington,1,0
27W,47.8195343017578,-120.720336914063,Lake Wenatchee State,Leavenworth,Washington,0,1
2S0,48.3505897521973,-120.093887329102,Twisp Mun,Twisp,Washington,1,0
6S9,48.3456764221191,-120.720603942871,Stehekin State,Stehekin,Washington,0,1
S52,48.4249725341797,-120.145881652832,Methow Valley State,Winthrop,Washington,1,0
WN26,46.8833732604981,-117.080177307129,Schoepflin,Moscow,Washington,1,0
6WA2,47.1116104125977,-122.821044921875,Gower Field,Olympia,Washington,0,1
KSHN,47.2365264892578,-123.148872375488,Sanderson,Shelton,Washington,2,0
00WA,47.1781234741211,-122.771064758301,Howell,Longbranch,Washington,0,1
02WA,47.1523780822754,-122.093086242676,Cawleys South Prairie,South Prairie,Washington,0,1
2S1,47.4585762023926,-122.477005004883,Vashon Muni,Vashon,Washington,0,1
4WA9,47.4326705932617,-122.663764953613,Port Orchard,Port Orchard,Washington,1,0
51WA,47.2679557800293,-122.067848205566,Evergreen Sky Ranch,Black Diamond,Washington,0,1
95WA,47.3153991699219,-122.00993347168,Black Diamond,Black Diamond,Washington,1,0
9WA7,47.2173652648926,-122.133102416992,Albritton,Buckley,Washington,0,1
KBFI,47.5311241149902,-122.302520751953,Boeing/King Co Intl,Seattle,Washington,2,0
KPWT,47.4902648925781,-122.764862060547,Bremerton Natl,Bremerton,Washington,1,0
KRNT,47.4931373596191,-122.215751647949,Renton Mun,Renton,Washington,1,0
KTCM,47.1376762390137,-122.47647857666,Mcchord Field (Joint Base Lewi,Tacoma,Washington,1,0
KTIW,47.2679405212402,-122.578125,Tacoma Narrows,Tacoma,Washington,1,0
S36,47.3374786376953,-122.103637695313,Grier,Kent,Washington,1,0
S50,47.3276824951172,-122.226669311523,Auburn Mun,Auburn,Washington,1,0
8W5,47.6565475463867,-122.73314666748,Apex Airpark,Silverdale,Washington,1,0
WA17,47.7554779052734,-121.982162475586,Majerle Strip,Duvall,Washington,0,1
WA61,47.8002014160156,-122.529525756836,Thompson Airport,Kingston,Washington,0,1
WA69,47.4005012512207,-122.499366760254,Wax Orchards,Vashon,Washington,0,1
WA77,47.1959953308105,-122.020111083984,Enumclaw,Enumclaw,Washington,1,0
WA84,47.2806968688965,-122.149963378906,Auburn Academy,Auburn,Washington,0,1
WA96,47.6079216003418,-122.773704528809,Leisureland Airpark,Bremerton,Washington,0,1
WN13,47.4647827148438,-122.568481445313,Vaughan Ranch Airfield,Port Orchard,Washington,0,1
WN42,47.1819381713867,-122.124320983887,Flying H Ranch,Buckley,Washington,0,1
WN76,47.2438430786133,-121.924308776855,Bergseth Field,Enumclaw,Washington,0,1
WN87,47.2087097167969,-122.09300994873,Bryan,Enumclaw,Washington,0,1
WN15,47.129508972168,-122.056205749512,Burnett Landing,Wilkeson,Washington,0,1
WT77,47.3552017211914,-122.788429260254,Rocky Bay Airport,Key Center,,1,0
0WA1,46.6171722412109,-122.826049804688,Dwight Field,Chehalis,Washington,1,0
0WA2,46.5896644592285,-123.105018615723,Curtis,Curtis,Washington,0,2
1WA2,46.521110534668,-122.891914367676,Pilot's Pastures,Winlock,Washington,0,2
20WA,46.828670501709,-123.036933898926,Skatter Creek,Rochester,Washington,0,1
44T,46.9924240112305,-122.827568054199,Hoskins,Olympia,Washington,0,1
4W8,46.9905281066895,-123.429679870605,Elma Mun,Elma,Washington,1,0
4WA2,46.9272537231445,-122.967514038086,Cricket Field,Little Rock,Washington,0,1
65WA,46.8406562805176,-122.916320800781,Wissler's,Tenino,Washington,0,1
84WA,46.9688568115234,-123.384452819824,D And B Airpark,Elma,Washington,0,1
8W9,46.8332099914551,-123.091087341309,R & K Skyranch,Rochester,Washington,0,2
KCLS,46.6770286560059,-122.982765197754,Chehalis-Centralia,Chehalis,Washington,1,0
KOLM,46.9699249267578,-122.902099609375,Olympia Rgnl,Olympia,Washington,2,0
WA16,46.8000717163086,-123.540885925293,Banas Field,Brooklyn,Washington,0,1
WA95,46.718936920166,-122.911361694336,Skyqueen,Centralia,Washington,0,1
WN47,47.0811042785645,-123.271560668945,Bear Valley Skyranch,Mccleary,Washington,0,1
WN48,46.7906341552734,-123.310447692871,Kimbrel Farm,Oakville,Washington,0,1
WN65,46.9752426147461,-123.476669311523,My,Elma,Washington,1,0
KPLU,47.1039199829102,-122.287216186523,Pierce Co-Thun,Puyallup,Washington,1,0
2W3,46.8716506958008,-122.257232666016,Swanson,Eatonville,Washington,1,0
39P,46.5503540039063,-122.266296386719,Strom,Morton,Washington,1,0
3B8,47.0705718994141,-122.370887756348,Shady Acres,Spanaway,Washington,1,0
3WA0,46.8972778320313,-122.667785644531,Taylor,Rainier,Washington,0,1
3WA9,46.9653930664063,-122.802810668945,Flying Carpet,Lacey,Washington,0,1
49WA,46.8470916748047,-122.521133422852,Cougar Mountain Airfield,Yelm,Washington,0,1
86WA,47.0037689208984,-122.234870910645,Kapowsin Field,Kapowsin,Washington,1,0
8WA0,46.8768653869629,-122.600563049316,Flying B,Rainier,Washington,0,1
06WN,46.9249877929687,-122.553062438965,Western,Yelm,Washington,1,0
KGRF,47.079216003418,-122.580787658691,Gray AAF,Ft Lewis,Washington,1,0
KTDO,46.4770240783691,-122.807189941406,Toledo-Winlock Carlson Meml,Toledo,Washington,1,0
KZ10,47.0216636657715,-122.446075439453,Pacemaker Landing Zone,Pacemaker Landing Zone,Washington,1,0
S44,47.0869178771973,-122.43140411377,Spanaway,Spanaway,Washington,1,0
WN05,46.514892578125,-122.792282104492,Harris,Toledo,Washington,0,1
WN34,46.5302391052246,-122.68611907959,Ethel Intl,Ethel,Washington,0,2
WN55,46.5113525390625,-122.006050109863,Randle-Kiona Airpark,Randle,Washington,0,1
WN59,46.5441246032715,-122.718162536621,Kadwell Field,Onalaska,Washington,1,0
WN74,46.5862045288086,-122.626182556152,Burnt Ridge Airstrip,Onalaska,Washington,0,1
1WA6,47.5594215393066,-121.864143371582,Fall City,Fall City,Washington,1,0
4W0,47.3954086303711,-121.536346435547,Bandera State,Bandera,Washington,0,1
KESW,47.254264831543,-121.185874938965,Easton State,Easton,Washington,0,1
S88,47.7109642028809,-121.33895111084,Skykomish State,Skykomish,Washington,0,1
2S5,47.6559906005859,-120.057144165039,Waterville,Waterville,Washington,1,0
2W1,47.1775703430176,-120.85270690918,De Vere,Cle Elum,Washington,1,0
3WA1,47.6036911010742,-120.669784545898,Johnson's Landing,Leavenworth,Washington,0,1
5WA5,47.7631454467773,-120.151672363281,Ross Private Strip,Orondo,Washington,0,1
8S2,47.5147705078125,-120.484687805176,Cashmere-Dryden,Cashmere,Washington,1,0
KEAT,47.3987808227539,-120.206733703613,Pangborn Memorial,Wenatchee,Washington,2,0
S93,47.1942329406738,-120.884063720703,Cle Elum Mun,Cle Elum,Washington,1,0
WA47,47.1513824462891,-120.633682250977,Flying Rock Airpark,Ellensburg,Washington,0,1
WN17,47.3400192260742,-120.31649017334,Hoverhawk Ranch,Wenatchee,Washington,0,1
KLEN,47.7654266357422,-120.79598236084,Leavenworth Airport,Leavenworth,,1,0
KLEO,47.7763481140137,-120.664131164551,Leavenworth Airport,Leavenworth,,0,1
21W,47.013011932373,-121.533676147461,Ranger Creek,Greenwater,Washington,1,0
4S6,46.6377944946289,-121.123641967773,Tieton State,Rimrock,Washington,0,1
55S,46.6041679382324,-121.678009033203,Packwood,Packwood,Washington,1,0
48WA,46.5621681213379,-120.78018951416,West Valley,Yakima,Washington,1,0
55WA,46.5299987792969,-120.745483398438,Wilkinson Ranch,Yakima,Washington,1,0
KELN,47.0332717895508,-120.53052520752,Bowers,Ellensburg,Washington,2,0
KYKM,46.5677680969238,-120.54345703125,Yakima Air Terminal/Mcallister,Yakima,Washington,2,0
WA26,46.4114112854004,-120.633941650391,Harrah,Harrah,Washington,0,1
WA97,46.4426193237305,-120.340286254883,Buena,Buena,Washington,0,1
WN64,46.9744834899902,-120.461669921875,J K D Farms,Ellensburg,Washington,1,0
0WN1,46.7518081665039,-120.600044250488,Shangri-La,Gleed,,0,1
WN45,46.7804489135742,-120.443771362305,Take Five,Selah,,1,0
05S,45.8522300720215,-123.24333190918,Vernonia Muni,Vernonia,Oregon,0,1
10OR,45.7788352966309,-123.221672058105,Stevens Mountain,Vernonia,Oregon,0,1
18JY,46.2861022949219,-123.441543579102,Skamokawa East Valley,Skamokawa,Washington,0,1
30OR,45.8024787902832,-123.280479431152,Bero Field,Vernonia,Oregon,0,1
52OR,45.7453002929688,-122.846252441406,Chinook Ultralight Airpark,Scappoose,Oregon,0,1
6OR8,45.9704284667969,-123.352653503418,Holce & Oblack,Birkenfield,Oregon,0,1
8OR6,45.7830543518066,-122.893020629883,Grabhorn's,Scappoose,Oregon,0,1
KKLS,46.1180038452148,-122.898384094238,Southwest Washington Rgnl,Kelso,Washington,1,0
KSPB,45.7710342407227,-122.861839294434,Scappoose Industrial Airpark,Scappoose,Oregon,1,0
OR23,46.1620216369629,-123.640594482422,Karpens,Astoria,Oregon,0,1
WT44,46.1772537231445,-123.384811401367,Michair,Cathlamet,,0,1
19WA,45.7193603515625,-121.885971069336,Key Way,Stevenson,Washington,0,1
5WA9,45.7238006591797,-122.545402526855,Brush Prairie Aerodrome,Brush Prairie,Washington,0,1
W27,45.8991928100586,-122.737518310547,Woodland State,Woodland,Washington,1,0
W52,45.8264045715332,-122.576011657715,Goheen,Battle Ground,Washington,0,2
W58,45.7644882202149,-122.515167236328,Cedars North,Battle Ground,Washington,0,1
WA29,45.8943214416504,-122.593894958496,La Center View-Air,La Center,Washington,0,1
WA46,45.831413269043,-122.638069152832,Daybreak,La Center,Washington,0,1
WA80,45.8936233520508,-122.54833984375,Mcclellan Field,Amboy,Washington,0,1
WA87,45.8157234191895,-122.553977966309,Parkside Airpark,Battle Ground,Washington,1,0
WN10,45.9927520751953,-122.380508422852,Mount St Helen's Aero Ranch,Cougar,Washington,0,1
06OR,45.4646263122559,-123.079780578613,Hayden Mountain,Forest Grove,Oregon,0,1
17S,45.324146270752,-123.05387878418,Chehalem,Newberg,Oregon,1,0
1OR3,45.5912666320801,-123.010101318359,Sunset Air Strip,North Plains,Oregon,0,1
1OR4,45.605655670166,-123.027168273926,North Plains,North Plains,Oregon,0,1
29OR,45.0294456481934,-122.95027923584,Smith Pvt,Brooks,Oregon,0,1
2S6,45.2952613830566,-122.953903198242,Sportsman Airpark,Newberg,Oregon,1,0
4S4,45.5811882019043,-123.053153991699,Skyport,Cornelius,Oregon,0,1
5OR2,45.1034927368164,-123.423843383789,Bushnell,Sheridan,Oregon,0,1
64OR,45.0338287353516,-123.173805236816,Plum Valley,Amity,Oregon,0,1
67OR,45.2335166931152,-122.856437683105,Mcgee,Donald,Oregon,0,1
69OR,45.4138679504395,-123.136512756348,Dick Fisher,Gaston,Oregon,0,1
70OR,45.4101753234863,-123.14867401123,Goodin Creek,Gaston,Oregon,0,1
73OR,45.3698768615723,-123.065795898438,Ribbon Ridge,Newberg,Oregon,0,1
74OR,45.3224792480469,-123.017585754395,Stan Jost,Newberg,Oregon,0,1
7S3,45.428337097168,-122.942375183105,Stark's Twin Oaks,Hillsboro,Oregon,1,0
91OR,45.1016654968262,-123.421417236328,Abba's,Sheridan,Oregon,0,1
98OR,45.1989631652832,-123.370346069336,Mach-O Acres,Sheridan,Oregon,0,1
KHIO,45.5402030944824,-122.949546813965,Portland-Hillsboro,Portland,Oregon,2,0
KMMV,45.1944465637207,-123.1357421875,Mc Minnville Muni,Mcminnville,Oregon,2,0
OG23,45.1578636169434,-123.390762329102,Poverty Hollow,Sheridan,Oregon,0,1
OG26,45.0649528503418,-123.480400085449,Roscoes,Willamina,Oregon,0,1
OG34,45.3994407653809,-122.831039428711,Meyer Riverside Airpark,Tigard,Oregon,0,1
OG44,45.1533660888672,-123.237419128418,Watts Landing,Amity,Oregon,0,1
OR00,45.433967590332,-122.873321533203,Flying K Ranch,Beaverton,Oregon,0,1
OR05,45.3616523742676,-123.357292175293,Flying M,Yamhill,Oregon,0,1
OR28,45.4393501281738,-122.89070892334,Pats Pasture,Beaverton,Oregon,0,1
OR38,45.0793800354004,-122.925804138184,Harchenko Industrial,Brooks,Oregon,1,0
OR59,45.3314895629883,-123.207244873047,Trivelpiece,Yamhill,Oregon,0,1
OR61,45.6781349182129,-123.185256958008,Apple Valley,Buxton,Oregon,0,1
OR81,45.5532989501953,-123.02108001709,Olinger Strip,Hillsboro,Oregon,0,1
OR90,45.2432746887207,-123.129570007324,Lafayette Airstrip,Lafayette,Oregon,0,1
OR95,45.0471992492676,-123.235870361328,Vineyard,Mccoy,Oregon,0,1
18OR,45.0919609069824,-123.183219909668,Red's Field,Amity,,0,1
2OG5,45.1173667907715,-123.505561828613,Mendenhall Airstrip,Willamina,,0,1
67OG,45.0312423706055,-123.405082702637,George,Sheridan,,0,1
KKEI,45.0681266784668,-123.005355834961,Keizer Airport,Keizer,,0,1
KYAM,45.293514251709,-123.302810668945,Yamhill Airport,Yamhill,,0,1
03S,45.4016151428223,-122.228630065918,Sandy River,Sandy,Oregon,0,1
1OR7,45.2877807617188,-122.4560546875,Skyhill,Oregon City,Oregon,0,1
1W1,45.6278381347656,-122.404327392578,Grove Field,Camas,Washington,1,0
26OR,45.4464797973633,-122.500587463379,Cub Port,Happy Valley,Oregon,1,0
28OR,45.4857482910156,-122.233207702637,Parrett Mountain,Newberg,Oregon,0,1
2OR0,45.3469009399414,-122.522705078125,Nielsen,Oregon City,Oregon,0,1
42OR,45.3725509643555,-122.463333129883,Big Sky Ranch,Carver,Oregon,0,1
44OR,45.2221832275391,-122.726989746094,Compton,Canby,Oregon,0,1
4OR6,45.4498977661133,-122.254707336426,Auberge Des Fleurs,Sandy,Oregon,0,1
4S9,45.216552734375,-122.590171813965,Portland-Mulino,Portland,Oregon,1,0
4WA1,45.6072540283203,-122.196449279785,Brown's Cape Horn,Skamania,Washington,0,1
5S9,45.3076362609863,-122.318099975586,Valley View,Estacada,Oregon,1,0
6OR7,45.4529495239258,-122.31819152832,Schmidt,Boring,Oregon,0,1
7OR9,45.323974609375,-122.472839355469,Bonney Acres,Oregon City,Oregon,0,1
7S9,45.1815223693848,-122.743209838867,Lenhardt,Hubbard,Oregon,1,0
KCZK,45.6766319274902,-121.878982543945,Cascade Locks State,Cascade Locks,Oregon,1,0
KPDX,45.5886878967285,-122.598167419434,Portland Intl,Portland,Oregon,3,0
KTTD,45.549373626709,-122.401260375977,Portland-Troutdale,Portland,Oregon,1,0
KUAO,45.2471504211426,-122.770057678223,Aurora State,Aurora,Oregon,1,0
KVUO,45.6204528808594,-122.65648651123,Pearson Field,Vancouver,Washington,1,0
OG20,45.320671081543,-122.553253173828,Fairways,Oregon City,Oregon,0,2
OG29,45.430606842041,-122.244041442871,Mckinnon Airpark,Sandy,Oregon,0,1
OG30,45.3166580200195,-122.605484008789,Aeroacres,Oregon City,Oregon,0,1
OL05,45.1456413269043,-122.618377685547,Skydive Oregon,Molalla,Oregon,1,0
OR40,45.2557258605957,-122.65104675293,Dietz Airpark,Canby,Oregon,0,1
OR41,45.207218170166,-122.669456481934,Workman Airpark,Canby,Oregon,0,1
OR50,45.4857635498047,-122.233428955078,Lehman Field,Corbett,Oregon,0,1
OR65,45.3546829223633,-122.346771240234,Eagle Nest Ranch,Estacada,Oregon,0,1
OR66,45.3096160888672,-122.351448059082,Beaver Oaks,Estacada,Oregon,1,0
OR67,45.3367042541504,-122.398307800293,Mcgill,Estacada,Oregon,0,1
OR72,45.4419860839844,-122.323593139648,Krueger,Boring,Oregon,0,1
S48,45.3545722961426,-122.26912689209,Country Squire,Sandy,Oregon,1,0
W56,45.6872901916504,-122.521636962891,Fly For Fun,Vancouver,Washington,0,1
WA67,45.6630516052246,-122.472648620605,Green Mountain,Vancouver,Washington,1,0
WA78,45.6291389465332,-122.19091796875,Sky River Ranch,Washougal,Washington,0,1
KSIL,45.0190467834473,-122.804634094238,Silverton Airport,Silverton,,0,1
36WA,45.9605331420898,-121.486419677734,Bob's Field,Trout Lake,Washington,0,1
5WA7,45.7184181213379,-120.984916687012,Warwick,Centerville,Washington,0,1
66WA,46.0024108886719,-121.523483276367,Trout Lake,Trout Lake,Washington,0,1
75WA,45.8021011352539,-121.480155944824,Port Elsner,White Salmon,Washington,0,1
9WA4,45.8103942871094,-120.952980041504,Piper Canyon,Goldendale,Washington,1,0
WA66,45.808666229248,-121.494689941406,Spring Creek Ranch,White Salmon,Washington,0,1
1S8,45.7224617004395,-120.177017211914,Arlington Muni,Arlington,Oregon,1,0
2WN9,45.8447914123535,-120.700126647949,Hillcrest,Goldendale,Washington,0,1
68WA,46.3938903808594,-120.221282958984,Mcmahon Field,Zillah,Washington,0,1
S20,45.8320770263672,-120.845054626465,Goldendale,Goldendale,Washington,1,0
03WN,45.8754577636719,-120.672271728516,Aerostone Ranch,,,0,2
KAHT,46.377140045166,-120.748184204102,Ahtanum Airport,Ahtanum,,1,0
KWAP,46.3792037963867,-120.560073852539,Wapato Airport,Wapato,,0,1
02OR,45.6817169189453,-121.319183349609,Rowena Dell,The Dalles,Oregon,0,1
0OR9,45.5930252075195,-121.548667907715,Hanel Field,Mount Hood,Oregon,1,0
19OR,45.1094665527344,-121.224327087402,Nelson Ranch,Maupin,Oregon,1,0
32OR,45.254810333252,-121.293151855469,Pine Hollow,Wamic,Oregon,0,1
4S2,45.6728172302246,-121.533912658691,Ken Jernstedt Airfield,Hood River,Oregon,1,0
68OR,45.3923377990723,-121.273773193359,Lyda Ranch Airstrip,Dufur,Oregon,0,1
6OR2,45.6106796264649,-121.279273986816,Chenoweth Airpark,The Dalles,Oregon,1,0
7OR6,45.6367340087891,-121.591026306152,Green Acres Air Park,Hood River,Oregon,0,1
KDLS,45.6194267272949,-121.168350219727,Columbia Gorge Rgnl/The Dalles,The Dalles,Oregon,2,0
OR53,45.1455078125,-121.22819519043,Wapinitia,Wapinitia,Oregon,2,0
OR60,45.4362754821777,-121.166625976563,Fargher,Dufur,Oregon,0,1
1OR5,45.4887351989746,-120.219688415527,Reed,Olex,Oregon,0,1
35S,45.5901832580566,-120.680191040039,Wasco State,Wasco,Oregon,2,0
3S9,45.2465553283691,-120.166511535645,Condon State Pauling Fld,Condon,Oregon,1,0
9OR1,45.0022201538086,-120.73949432373,Shaniko Ranch,Shaniko,Oregon,1,0
OL04,45.1648025512695,-120.659492492676,Decker Ranch,Kent,Oregon,0,1
OR46,45.3812866210938,-120.468185424805,Ajax,Condon,Oregon,0,1
OR48,45.194263458252,-120.217002868652,Snyder Ranch,Condon,Oregon,1,0
OR87,45.1298065185547,-120.612815856934,Compressor Station Nr 10 Stolport,Kent,Oregon,1,0
5OR3,44.7293472290039,-123.912605285645,Siletz,Siletz,Oregon,0,1
5S4,44.6009674072266,-123.939598083496,Toledo State,Toledo,Oregon,1,0
KONP,44.5806922912598,-124.057670593262,Newport Muni,Newport,Oregon,2,0
R33,44.3846015930176,-124.085258483887,Wakonda Beach State,Waldport,Oregon,0,1
S45,44.876781463623,-124.028610229492,Siletz Bay State,Gleneden Beach,Oregon,1,0
6S2,43.9828262329102,-124.111389160156,Florence Mun,Florence,Oregon,1,0
1OR0,43.4834632873535,-124.202651977539,Sunnyhill,North Bend,Oregon,0,1
45OR,43.1547737121582,-124.170722961426,Benham,Coquille,Oregon,1,0
9S3,43.5820655822754,-124.179992675781,Lakeside State,Lakeside,Oregon,0,1
KOTH,43.4166374206543,-124.246490478516,Southwest Oregon Rgnl,North Bend,Oregon,2,0
OR42,43.1018028259277,-124.160217285156,Norway,Norway,Oregon,0,1
S05,43.0864791870117,-124.407928466797,Bandon State,Bandon,Oregon,1,0
4S1,42.4153556823731,-124.424987792969,Gold Beach Muni,Gold Beach,Oregon,1,0
5S6,42.8580017089844,-124.517875671387,Cape Blanco State,Denmark,Oregon,1,0
6S6,42.8692741394043,-124.058822631836,Powers,Powers,Oregon,0,1
OR74,42.7018432617188,-123.806274414063,Winkle Bar,Grants Pass,Oregon,0,1
0O9,41.8455810546875,-123.98462677002,Ward,Gasquet,California,1,0
KBOK,42.0739402770996,-124.289810180664,Brookings State,Brookings,Oregon,1,0
KCEC,41.780200958252,-124.236618041992,Jack Mc Namara Field,Crescent City,California,2,0
S51,41.5119857788086,-123.995666503906,Mcbeth,Klamath Glen,California,1,0
KACV,40.9778366088867,-124.108558654785,California Redwood Coast-Humboldt County Airport,Arcata-Eureka,California,2,0
KEKA,40.8034057617188,-124.112800598145,Murray Field,Eureka,California,1,0
KFOT,40.5539588928223,-124.132675170898,Rohnerville,Fortuna,California,1,0
O16,40.0856399536133,-123.814109802246,Garberville,Garberville,California,1,0
O19,40.7189102172852,-123.927268981934,Kneeland,Eureka,California,1,0
O33,40.780933380127,-124.21216583252,Eureka Mun,Eureka,California,1,0
0Q5,40.0281448364258,-124.074363708496,Shelter Cove,Shelter Cove,California,1,0
82CL,39.4727973937988,-123.795516967773,Fort Bragg,Fort Bragg,California,1,0
KLLR,39.2620544433594,-123.753852844238,Little River,Little River,California,1,0
0OR7,44.8550415039063,-123.263191223145,Marr Field,Monmouth,Oregon,0,1
2OR3,44.7943992614746,-123.09725189209,Davidson Field,Jefferson,Oregon,0,1
3OR1,44.3648567199707,-122.959114074707,Cubehole,Brownsville,Oregon,0,1
4OR3,44.7303657531738,-123.075706481934,Lambert Field,Albany,Oregon,0,1
4OR4,44.4433364868164,-123.237495422363,Schrock,Corvallis,Oregon,0,1
4OR5,44.9679222106934,-122.942611694336,Fly 'n' W,Salem,Oregon,0,1
4OR7,44.9850578308106,-122.946075439453,Landsem Air Field,Salem,Oregon,0,1
55OR,44.4359169006348,-123.308883666992,Muddy Creek,Corvallis,Oregon,0,1
5OR8,44.7727699279785,-122.84969329834,Hatch,Stayton,Oregon,1,0
7S5,44.8669776916504,-123.198303222656,Independence State,Independence,Oregon,1,0
88OR,44.5677604675293,-122.972106933594,Tallman,Lebanon,Oregon,0,1
8OR7,44.6269493103027,-123.224136352539,Joyner,Corvallis,Oregon,0,1
9OR0,44.315731048584,-123.024864196777,Lafferty Field,Brownsville,Oregon,1,0
9OR8,44.7322502136231,-123.055870056152,Wooldridge Agstrip,Albany,Oregon,1,0
KCVO,44.4976692199707,-123.288612365723,Corvallis Muni,Corvallis,Oregon,2,0
KSLE,44.9095115661621,-123.002563476563,Mcnary Fld,Salem,Oregon,2,0
OG10,44.5570182800293,-122.826927185059,Mt Hope,Lebanon,Oregon,0,1
OG16,44.3823471069336,-123.212707519531,Jim's Airstrip,Halsey,Oregon,0,1
OR19,44.6389770507813,-123.022819519043,Propst,Albany,Oregon,1,0
OR21,44.5942611694336,-122.989906311035,Miller Airstrip,Albany,Oregon,0,1
OR22,44.620777130127,-123.031814575195,Roppair,Albany,Oregon,0,1
OR25,44.8455772399902,-122.900054931641,Flying E,Aumsville,Oregon,0,1
OR39,44.6576995849609,-123.212089538574,Flying Tom,Corvallis,Oregon,0,1
OR52,44.4742012023926,-123.30298614502,Venell,Corvallis,Oregon,1,0
OR54,44.6198348999023,-123.242744445801,Winn,Corvallis,Oregon,0,1
OR56,44.5699501037598,-123.170372009277,Holiday,Corvallis,Oregon,1,1
OR77,44.8001403808594,-123.156982421875,Fitts,Independence,Oregon,0,1
OR86,44.7578506469727,-123.027359008789,Gilmour Ag Air,Jefferson,Oregon,0,1
OR94,44.3915519714355,-123.029556274414,Showa,Brownsville,Oregon,0,1
S12,44.6378211975098,-123.059516906738,Albany Mun,Albany,Oregon,1,0
S30,44.5311393737793,-122.929794311523,Lebanon State,Lebanon,Oregon,1,0
21OG,44.7716369628906,-122.970695495605,Ames,Jefferson,,1,0
22OR,44.9427223205566,-122.762397766113,Iron Crown,Silverton,Oregon,0,1
2OR7,44.3995780944824,-122.68578338623,Sweet Home,Sweet Home,Oregon,0,1
5OR9,44.7753448486328,-122.760192871094,Lone Oaks Ranch,Stayton,Oregon,0,1
6S4,44.7458801269531,-122.42138671875,Davis,Gates,Oregon,0,1
8OR2,44.7776718139648,-122.730834960938,Kingston Airpark,Stayton,Oregon,0,1
8S3,44.4345092773438,-121.942474365234,Santiam Junction State,Santiam Junction,Oregon,0,1
OG28,44.6831970214844,-122.782119750977,The Green Trees Ranch,Scio,Oregon,0,1
OR51,44.7193717956543,-122.698226928711,Gillette Field,Scio,Oregon,0,1
33OR,44.064094543457,-123.39136505127,Crow-Mag,Elmira,Oregon,0,1
36OR,44.0036163330078,-122.880531311035,Jasper Ridge Airstrip,Springfield/Jasper,Oregon,0,1
61S,43.8040580749512,-123.032196044922,Cottage Grove State,Cottage Grove,Oregon,1,0
77S,43.9307556152344,-123.00666809082,Hobby,Creswell,Oregon,1,0
KEUG,44.1246032714844,-123.210807800293,Mahlon Sweet Field,Eugene,Oregon,2,0
OG36,44.2507095336914,-123.228088378906,Munson,Junction City,Oregon,0,1
OR47,44.1893081665039,-123.18994140625,Strauch Field,Junction City,Oregon,0,1
OR57,43.86865234375,-123.032333374023,Walker,Creswell,Oregon,0,1
OR78,44.2714004516602,-123.062118530273,Daniels Field,Harrisburg,Oregon,1,0
00S,44.181526184082,-122.085662841797,Mc Kenzie Bridge State,Mckenzie Bridge,Oregon,0,1
13OR,43.7426528930664,-122.427726745605,Aubrey Mountain Airstrip,Oakridge,Oregon,0,1
5S0,43.7525482177734,-122.504539489746,Oakridge State,Oakridge,Oregon,1,0
5S5,44.5201187133789,-121.319648742676,Lake Billy Chinook State,Culver,Oregon,1,0
61OR,44.3293533325195,-121.357208251953,The Citadel,Sisters,Oregon,0,1
6K5,44.3045692443848,-121.539054870605,Sisters Eagle Air,Sisters,Oregon,1,0
72OR,44.788990020752,-120.95849609375,Ochs Private,Madras,Oregon,0,1
OG00,44.5569190979004,-121.405502319336,3 Rivers Recreation Area,Culver,Oregon,1,0
OG19,44.6506881713867,-121.237281799316,Bombay Farms,Madras,Oregon,0,2
OR34,44.3226051330566,-121.43302154541,Whippet Field,Sisters,Oregon,0,1
S33,44.671573638916,-121.156028747559,City-Co,Madras,Oregon,2,0
04OR,44.7331314086914,-120.163688659668,Collins Landing Strip,Mitchell,Oregon,0,1
2OR1,44.8287086486816,-120.495269775391,Big Muddy Ranch,Antelope,Oregon,1,0
OR89,44.9999542236328,-120.051429748535,Kinzua,Kinzua,Oregon,0,1
KFOS,44.5836563110352,-120.171157836914,Fossil Airport,Fossil,,0,1
OG51,44.4844665527344,-120.916137695313,Six Springs Ranch,Prineville,,1,0
OG54,44.9595031738281,-120.884338378906,Shaniko Cattle,Madras,,0,1
35OR,44.1895599365234,-121.175354003906,Freight Wagon Field,Redmond,Oregon,0,1
3OR8,44.282958984375,-121.270874023438,Cline Falls Air Park,Redmond,Oregon,1,0
50OR,44.0970611572266,-120.946685791016,Goering Ranches,Alfalfa,Oregon,1,0
5OR5,44.0339698791504,-121.118194580078,Juniper Air Park,Bend,Oregon,0,1
8OR5,44.0472450256348,-121.275703430176,Pilot Butte,Bend,Oregon,1,0
KRDM,44.2540969848633,-121.150047302246,Roberts Field,Redmond,Oregon,2,0
OG05,43.992073059082,-121.210807800293,Sundance Meadows,Bend,Oregon,0,1
OG15,44.233154296875,-121.391708374023,Sage Ranch,Sisters,Oregon,0,1
OR04,44.0297546386719,-121.164566040039,Kennel Airstrip,Bend,Oregon,0,1
OR29,44.112361907959,-121.334609985352,Gopher Gulch,Bend,Oregon,1,0
OR30,44.00341796875,-121.272766113281,D M Stevenson Ranch,Bend,Oregon,0,1
KBDN,44.094596862793,-121.200309753418,Bend Mun,Bend,Oregon,1,0
S21,43.8763275146484,-121.453079223633,Sunriver,Sunriver,Oregon,1,0
KLAI,43.6743850708008,-121.593276977539,La Pine Airport,La Pine,,1,0
KTHH,43.8030776977539,-121.570938110352,Three Rivers Airport,Three Rivers,,0,1
6OR4,44.2733116149902,-120.794830322266,Tailwheel,Prineville,Oregon,0,1
OG12,44.2125968933105,-120.523864746094,Wilson Ranch,Prineville,Oregon,0,2
OG21,44.1946601867676,-120.823303222656,Dry Creek Airpark,Prineville,Oregon,1,0
S39,44.2874069213867,-120.90510559082,Prineville,Prineville,Oregon,2,0
KPRE,43.8187942504883,-120.612243652344,Prineville Airport,Prineville,,0,1
11OR,43.4258079528809,-123.280380249023,Holiday Sky Ranch,Sutherlin,Oregon,0,1
16S,42.9972305297852,-123.315353393555,Myrtle Creek Mun,Myrtle Creek,Oregon,1,0
17OR,43.264835357666,-123.110420227051,Glide Aero,Glide,Oregon,0,1
2OR4,43.4771842956543,-123.348762512207,Heavens Gate Ranch,Oakland,Oregon,1,0
48OR,43.1592102050781,-123.502708435059,Lookingglass,Roseburg,Oregon,1,0
58OR,43.3099327087402,-123.126861572266,Umpqua,Roseburg,Oregon,0,1
5S1,43.2154197692871,-123.404396057129,Felt,Roseburg,Oregon,0,1
60OR,43.4257850646973,-123.280403137207,Whitaker,Oakland,Oregon,0,1
8OR3,42.9341773986816,-123.121681213379,Riverview Ranch,Days Creek,Oregon,0,1
94OR,43.5307121276856,-123.548690795898,Farm Yard Field,Elkton,Oregon,0,1
95OR,43.2080039978027,-123.530067443848,Flournoy Valley,Roseburg,Oregon,0,1
98TE,43.3220558166504,-123.17652130127,Hilltop,Glide,Oregon,0,1
KRBG,43.2393264770508,-123.355911254883,Roseburg Regl,Roseburg,Oregon,1,0
OG40,43.2372817993164,-123.49308013916,Napier Ranch,Roseburg,Oregon,0,1
3S6,43.2236824035645,-122.421478271484,Toketee State,Clearwater,Oregon,0,1
5S2,43.5324287414551,-121.949951171875,Crescent Lake State,Crescent Lake,Oregon,1,0
3S8,42.5101547241211,-123.388000488281,Grants Pass,Grants Pass,Oregon,1,0
4OR0,42.5554161071777,-123.205123901367,Springbrook,Rogue River,Oregon,1,0
5OR0,42.2868309020996,-123.531509399414,Backachers Ranch,Selma,Oregon,0,1
KMFR,42.3749732971191,-122.873306274414,Rogue Valley Intl - Medford,Medford,Oregon,1,0
OG13,42.2459411621094,-123.070877075195,Fly By Night,Ruch,Oregon,0,1
OG31,42.6086616516113,-122.829475402832,Shady Cove Airpark,Shady Cove,Oregon,0,1
OG41,42.7709426879883,-123.315208435059,Nace Family Airstrip,Glendale,Oregon,0,1
OR06,42.5388679504395,-122.922821044922,Snider Creek,Medford,Oregon,0,1
OR73,42.7787132263184,-123.73461151123,Calvert Peak,Glendale,Oregon,1,0
OR96,42.5384407043457,-122.903610229492,Beagle Sky Ranch,Medford,Oregon,0,1
OR97,42.4387016296387,-122.866577148438,Burrill,Medford,Oregon,0,1
2S7,42.5792922973633,-121.879005432129,Chiloquin State,Chiloquin,Oregon,1,0
64S,42.742603302002,-122.488838195801,Prospect State,Prospect,Oregon,1,0
89OR,42.5966262817383,-122.714530944824,Mucky Flat,Eagle Point,Oregon,0,1
S03,42.1902847290039,-122.66064453125,Ashland Mun-Parker,Ashland,Oregon,1,0
26OG,42.4630088806152,-122.734848022461,Oakridge Ranch,Eagle Point,,0,1
1JY2,43.0673484802246,-121.053337097168,Mahogany Mtn.,Silver Lake,Oregon,0,2
2S2,43.1274147033691,-121.808753967285,Beaver Marsh State,Beaver Marsh,Oregon,0,1
45S,43.1113319396973,-121.093780517578,Silver Lake F S Strip,Silver Lake,Oregon,0,1
62S,43.2362403869629,-120.665161132813,Christmas Valley,Christmas Valley,Oregon,1,0
OG06,43.2115745544434,-120.842636108398,Table Rock,Christmas Valley,Oregon,0,1
08OR,42.8409156799316,-121.116889953613,Saxon Sycan,Silver Lake,Oregon,0,1
5OR4,42.4328918457031,-121.349555969238,Flying T Ranch,Sprague River,Oregon,0,1
80OR,42.3645248413086,-120.968215942383,Wilderness,Bly,Oregon,0,1
85OR,42.4023551940918,-121.048927307129,Allen's Airstrip,Bly,Oregon,0,1
KTUA,42.481502532959,-121.060104370117,Tulelake Airport,Tulelake,,0,1
22OG,42.2754211425781,-120.392646789551,Withrotor,Lakeview,Oregon,1,0
22S,42.7178688049316,-120.562652587891,Paisley,Paisley,Oregon,1,0
36S,41.7905120849609,-123.38892364502,Happy Camp,Happy Camp,California,1,0
3S4,42.1039733886719,-123.68229675293,Illinois Valley,Cave Junction,Oregon,1,0
A30,41.557804107666,-122.854995727539,Scott Valley,Ft Jones,California,1,0
CA09,41.8847312927246,-122.844100952148,Round Mountain,Klamath River,California,0,1
1O5,41.7308387756348,-122.545310974121,Montague-Yreka Rohrer Field,Montague,California,1,1
23CA,41.6291809082031,-122.759140014648,Lefko,Fort Jones,California,0,1
24S,42.1101913452148,-122.38313293457,Pinehurst State,Pinehurst,Oregon,1,0
2CL3,41.6424942016602,-121.890464782715,Longbell Ranch,Tennant,California,0,1
6CA1,41.7426452636719,-121.87882232666,Triple R Ranch,Macdoel,California,0,1
A32,41.887321472168,-121.974395751953,Butte Valley,Dorris,California,1,1
CA10,41.6173973083496,-122.319671630859,Coonrod Ranch,Little Shasta,California,0,1
KSIY,41.781436920166,-122.468132019043,Siskiyou Co,Montague,California,1,0
KMOO,41.6278762817383,-122.41138458252,Avery Ranch Airstrip,Montague,,0,1
O21,41.0415687561035,-123.667724609375,Hoopa,Hoopa,California,1,0
1O6,41.2629280090332,-122.272193908691,Dunsmuir Muni-Mott,Dunsmuir,California,1,0
O46,41.4807777404785,-122.454559326172,Weed,Weed,California,1,0
O86,40.9827728271484,-122.693733215332,Trinity Center,Trinity Center,California,1,0
0OR3,42.0184440612793,-121.698921203613,Long Ranch,Merrill,Oregon,0,1
4S7,42.000617980957,-121.396324157715,Malin,Malin,Oregon,1,1
KLMT,42.1561622619629,-121.733192443848,Crater Lake-Klamath Rgnl,Klamath Falls,Oregon,2,0
O81,41.8906211853027,-121.360679626465,Tulelake Mun,Tulelake,California,1,0
3OG3,42.1244087219238,-121.796989440918,Dillon Field,Altamont,,0,1
6OG3,42.1253204345703,-121.531677246094,Sky Wagon Ranch Llc,Tulelake,,0,1
A28,41.8766098022461,-120.146644592285,Ft Bidwell,Ft Bidwell,California,0,1
KLKV,42.1611175537109,-120.399047851563,Lake Co,Lakeview,Oregon,1,0
O59,41.5536079406738,-120.165634155273,Cedarville,Cedarville,California,1,0
KALT,41.5215950012207,-120.665084838867,Alturas Airport,Alturas,,1,0
A26,41.1864967346191,-120.954330444336,Adin,Adin,California,1,0
O55,41.1395416259766,-121.123962402344,Southard,Bieber,California,1,0
O89,41.0173759460449,-121.435043334961,Fall River Mills,Fall River Mills,California,1,0
9CL3,41.2394371032715,-120.526435852051,Likely,Likely,California,1,0
A24,41.4122886657715,-120.683921813965,California Pines,Alturas,California,1,0
CA06,41.422233581543,-120.567481994629,Bates Field,Alturas,California,0,3
CL88,41.4469146728516,-120.583862304688,Wesinger Ranch,Alturas,California,0,1
KAAT,41.4829216003418,-120.565406799316,Alturas Mun,Alturas,California,2,0
O39,40.8037223815918,-120.366203308105,Ravendale,Ravendale,California,1,0
KALL,41.4333267211914,-120.86792755127,Alturas Airport,Alturas,,0,1
KALU,41.3320350646973,-120.533584594727,Alturas Airport,Alturas,,0,1
41CA,40.3173637390137,-123.253883361816,Silver Creek Ranch,Forest Glen,California,0,1
45CL,40.1418037414551,-123.399055480957,Hell'Er High Water,Zenia,California,0,1
D63,40.4920349121094,-123.598220825195,Dinsmore,Dinsmore,California,1,0
F62,40.5469741821289,-123.179626464844,Hayfork,Hayfork,California,1,0
H47,40.6253967285156,-123.468376159668,Hyampom,Hyampom,California,1,0
O54,40.7473182678223,-122.922332763672,Pool/Weaverville,Weaverville,California,1,0
T42,40.2114715576172,-123.297706604004,Ruth,Ruth,California,1,0
3CL2,40.1567802429199,-122.302169799805,Meadow Airstrip,Red Bluff,California,0,1
68CA,40.3612823486328,-122.215690612793,Lake California Air Park,Cottonwood,California,1,0
CA04,40.3455772399902,-122.339401245117,Flying N Ranch,Cottonwood,California,0,1
CA53,40.6720428466797,-122.341156005859,Tews Field,Redding,California,1,0
CN42,40.4456024169922,-121.883308410645,Double Creek Ranch,Manton,California,0,1
KRBL,40.1503372192383,-122.252182006836,Red Bluff Muni,Red Bluff,California,1,0
KRDD,40.508659362793,-122.293113708496,Redding Muni,Redding,California,2,0
O85,40.5736808776855,-122.407348632813,Benton Field,Redding,California,1,0
KREN,40.4992942810059,-122.375915527344,Redding Airport,Redding,,1,0
1Q5,39.4497146606445,-122.955413818359,Gravelly Valley,Upper Lake,California,0,1
O09,39.7904930114746,-123.266395568848,Round Valley,Covelo,California,1,0
O28,39.4513282775879,-123.372329711914,Ells-Willits Mun,Willits,California,1,0
KCOV,39.6295738220215,-123.185501098633,Covelo Airport,Covelo,,1,0
0O4,39.9461135864258,-122.171173095703,Corning Muni,Corning,California,1,0
49CN,40.0151252746582,-122.39111328125,Rancho Tehama,Red Bluff,California,1,0
4CA7,39.6712455749512,-121.884071350098,Johnsen,Chico,California,0,1
90CL,39.5712623596191,-122.607437133789,Diamond M Ranch,Elk Creek,California,0,1
KWLW,39.5161552429199,-122.217330932617,Willows-Glenn Co,Willows,California,2,0
O37,39.7204360961914,-122.146423339844,Haigh,Orland,California,1,0
0Q6,40.5226135253906,-121.816764831543,Shingletown,Shingletown,California,0,1
52CN,40.3439559936524,-121.772743225098,Ponderosa Sky Ranch,Paynes Creek,California,0,1
O05,40.2863388061523,-121.239486694336,Rogers,Chester,California,1,1
KWES,40.3061447143555,-121.036720275879,Westwood Airport,Westwood,,1,0
1Q2,40.6503067016602,-120.768486022949,Spaulding,Susanville,California,1,0
H37,40.1387519836426,-120.179794311523,Herlong,Herlong,California,1,0
KAHC,40.2659034729004,-120.150611877441,Amedee AAF,Sierra Army Depot,California,1,0
KSVE,40.3754272460938,-120.573066711426,Susanville Mun,Susanville,California,1,1
KSUV,40.5710830688477,-120.8447265625,Susanville Airport,Susanville,,0,1
07CL,39.497802734375,-121.770805358887,Richvale,Richvale,California,1,0
2O1,39.9438972473145,-120.94539642334,Gansner Field,Quincy,California,1,0
CL23,39.4542999267578,-121.701545715332,Jones/Ag-Viation,Biggs,California,1,0
KCIC,39.7952499389648,-121.858871459961,Chico Muni,Chico,California,2,0
KOVE,39.4884605407715,-121.620506286621,Oroville Mun,Oroville,California,2,0
CL56,39.719654083252,-121.870559692383,Ranchaero,Chico,California,1,0
CA92,39.7103004455566,-121.616516113281,Paradise Skypark,Paradise,California,1,0
2CL1,39.4552116394043,-121.291633605957,Brownsville,Brownsville,California,1,0
CA38,39.6524391174316,-120.439529418945,Totem Pole Ranch,Calpine,California,0,1
O02,39.8185424804687,-120.352783203125,Nervino,Beckwourth,California,1,0
O79,39.5815315246582,-120.354309082031,Sierraville Dearwater,Sierraville,California,1,0
CA11,39.9962310791016,-120.216499328613,Bodad Airstrip,California,,0,1
00CL,39.4259986877441,-121.763458251953,Williams Ag,Sacramento,California,1,0
1O2,38.9906158447266,-122.900726318359,Lampson Field,Lakeport,California,1,0
53CL,38.8593521118164,-123.591094970703,Lofty Redwoods,Anchor Bay,California,1,0
CA51,38.7038192749023,-123.432136535645,The Sea Ranch,The Sea Ranch,California,1,0
D83,39.0139350891113,-123.38158416748,Boonville,Boonville,California,1,0
E55,38.801700592041,-123.530555725098,Ocean Ridge,Gualala,California,1,0
KUKI,39.1267395019531,-123.201080322266,Ukiah Muni,Ukiah,California,1,0
O60,38.7762718200684,-122.992637634277,Cloverdale Mun,Cloverdale,California,1,0
KREE,39.2774085998535,-123.077423095703,Redwood Valley Airport,Redwood Valley,,0,1
KREW,39.2857627868652,-123.088768005371,Redwood Valley Airport,Redwood Valley,,0,1
20CL,38.7500495910645,-122.368011474609,Mysterious Valley,Pope Valley,California,0,1
2CL2,39.0085601806641,-122.098236083984,Mccabe Ranch,Arbuckle,California,0,1
38CN,39.1111183166504,-121.884429931641,Sanborn,Meridian,California,1,0
44CL,39.0478019714355,-121.950286865234,Cortopassi,Linden,California,1,0
4CL3,39.1462860107422,-122.355606079102,Antelope Valley Ranch,Williams,California,0,2
53CN,39.0773124694824,-121.913093566895,Thayer Aviation,Grimes,California,1,0
63CL,38.7163238525391,-122.139038085938,G3 Ranch,Capay,California,0,1
67CL,39.2016944885254,-122.04776763916,Davis,Colusa,California,1,0
71CL,39.3525848388672,-122.094024658203,Gunnersfield Ranch,Delevan,California,1,0
81CA,38.7318115234375,-122.56330871582,7-M Ranch,Middletown,California,0,1
8CL6,39.2881164550781,-122.189407348633,Moller,Maxwell,California,1,0
CN12,39.1632919311523,-122.131813049316,Williams,Williams,California,1,0
O08,39.1789855957031,-121.993347167969,Colusa Co,Colusa,California,1,0
Q79,38.8714752197266,-122.677314758301,Paul Hoberg,Loch Lomond,California,0,1
12CN,39.2685775756836,-122.116912841797,Richter,Maxwell,,1,0
KMAX,39.2696266174316,-122.481285095215,Maxwell Airport,Maxwell,,0,1
KSTS,38.5096664428711,-122.813163757324,Charles M Schulz - Sonoma Coun,Santa Rosa,California,2,0
KHES,38.6528701782227,-122.898666381836,Healdsburg Mun,Healdsburg,California,1,0
05CL,38.6107368469238,-122.391510009766,Pope Valley,Pope Valley,California,1,0
0Q3,38.2241821289062,-122.45027923584,Sonoma Valley,Schellville-Sonoma,California,2,0
0Q9,38.257511138916,-122.434829711914,Sonoma Skypark,Sonoma,California,1,0
2O3,38.578556060791,-122.435264587402,Angwin-Parrett Field,Angwin,California,1,0
8Q0,38.269718170166,-121.972076416016,Travis AFB Aero Club,Fairfield,California,1,0
CA35,38.0168647766113,-122.520904541016,San Rafael,San Rafael,California,1,0
CA39,38.4343452453613,-122.563446044922,Graywood Ranch,Santa Rosa,California,0,1
CA57,38.4580383300781,-122.049781799316,Blake Sky Park,Vacaville,California,0,1
KAPC,38.2133865356445,-122.28050994873,Napa Co,Napa,California,3,0
KCCR,37.9897384643555,-122.056983947754,Buchanan Field,Concord,California,4,0
KDVO,38.1435775756836,-122.557106018066,Gnoss,Novato,California,1,0
KSUU,38.2625503540039,-121.927589416504,Travis AFB,Fairfield,California,2,0
KVCB,38.3795776367187,-121.960083007813,Nut Tree,Vacaville,California,1,0
O69,38.2577972412109,-122.605346679688,Petaluma Mun,Petaluma,California,1,0
KGRV,38.1726264953613,-122.122978210449,Green Valley Airport,Green Valley,,0,2
KNAA,38.2612915039062,-122.285194396973,Napa Airport,Napa,,1,0
09CL,39.112060546875,-121.055191040039,Alta Sierra,Grass Valley,California,1,0
18CL,39.285457611084,-121.694267272949,Bowles,Live Oak,California,1,0
25CL,38.8671340942383,-121.489334106445,Van Dyke Strip,Pleasant Grove,California,1,0
27CL,38.7541236877441,-121.56282043457,Sopwith Farm,Pleasant Grove,California,1,0
32CL,38.8328704833984,-121.718292236328,Bob's Flying Service Inc,Knights Landing,California,1,0
34CA,38.7922821044922,-121.374580383301,Fiddyment Field,Roseville,California,0,1
38CL,38.7540435791016,-121.562835693359,Riego Flight Strip,Verona,California,1,0
59CN,38.834831237793,-121.529670715332,James Brothers,Pleasant Grove,California,0,1
92CL,39.1032371520996,-121.850067138672,Moronis,Meridian,California,1,0
CA07,38.8410568237305,-121.562858581543,Scheidel Ranch,Pleasant Grove,California,0,1
CA18,38.8752479553223,-121.71036529541,Wagner Aviation,Robbins,California,1,0
CA21,39.2205047607422,-121.213722229004,Limberlost Ranch,Rough And Ready,California,0,1
CA22,38.7541198730469,-121.56282043457,Lauppes Strip,Sacramento,California,1,0
CA73,39.0935440063477,-121.717666625977,Vanderford Ranch Company,Yuba City,California,1,0
KAUN,38.9548263549805,-121.081741333008,Auburn Mun,Auburn,California,1,0
KBAB,39.1360740661621,-121.436584472656,Beale AFB,Marysville,California,1,0
KLHM,38.9091644287109,-121.351356506348,Lincoln Regl/Harder,Lincoln,California,1,0
KMYV,39.0980491638184,-121.569351196289,Yuba County,Marysville,California,2,0
KSMF,38.6954345703125,-121.590782165527,Sacramento Intl,Sacramento,California,2,0
L36,38.6748962402344,-121.445472717285,Rio Linda,Rio Linda,California,1,0
KGOO,39.2240371704102,-121.002944946289,Nevada Co,Grass Valley,California,1,0
O41,38.6738510131836,-121.872077941895,Watts-Woodland,Woodland,California,1,0
O52,39.1236763000488,-121.60538482666,Sutter County,Yuba City,California,1,0
O61,38.6841011047363,-120.987640380859,Cameron,Cameron Park,California,1,0
0CN2,39.2283477783203,-121.688255310059,Sutter Butte Dusters,,,1,0
KBEL,39.1885566711426,-121.420097351074,Beale Air Force Base Airport,Beale Air Force Base,,0,1
KWOO,38.7992248535156,-121.830673217773,Zamora Airport,Woodland,,1,0
01CL,38.7990646362305,-120.735504150391,Swansboro Country,Placerville,California,1,0
54CN,38.7541961669922,-120.899475097656,Akin,Placerville,California,0,1
7CL9,38.6964645385742,-120.732978820801,Perryman,Placerville,California,0,1
80CA,38.8176765441895,-120.923477172852,Bacchi Valley Industries,Lotus,California,0,1
E36,38.9211349487305,-120.864799499512,Georgetown,Georgetown,California,1,0
KBLU,39.2749862670898,-120.709800720215,Blue Canyon-Nyack,Emigrant Gap,California,1,0
KPVF,38.7242240905762,-120.753326416016,Placerville,Placerville,California,1,0
KTRK,39.3200531005859,-120.138977050781,Truckee-Tahoe,Truckee,California,2,0
KEDU,38.5314712524414,-121.786491394043,University,Davis,California,1,0
13CL,38.3778343200684,-121.82332611084,Maine Prairie,Dixon,California,0,1
1O3,38.2023048400879,-121.268913269043,Lodi,Lodi,California,2,0
26CA,38.4280128479004,-121.171272277832,Boeckmann Ranch,Wilton,California,0,1
2CL9,38.3348388671875,-121.305236816406,Mustang,Galt,California,1,0
KDWA,38.5793800354004,-121.856948852539,Yolo County,Davis/Woodland/Winters,California,1,0
40CL,38.338264465332,-120.976356506348,Ranch Airstrip,Ione,California,0,1
